"FIPS","county","state","zip","weighted.cost.index","total.discharges","city","latitude","longitude","timezone","dst","cost.index","hasteach","Government","NonProfit","Proprietary","Church","YPLL.Rate","X..Fair.Poor","Physically.Unhealthy.Days","Mentally.Unhealthy.Days","X..LBW","X..Smokers","X..Obese","X..Physically.Inactive","X..Excessive.Drinking","MV.Mortality.Rate","Chlamydia.Rate","Teen.Birth.Rate","X..Uninsured","pcp_ratio","dentist_ratio","Medicare.Enroll.ACSC.Rate","X..Diabetes.Test","X..Mammography","X..AFGR.HS.Grad","X..Some.College","X..Unemployed","X..Children.in.Poverty","X..No.Social.Emotional.Support","X..Single.Parent.Households","Violent.Crime.Rate","Average.daily.PM25","X..pop.in.viol","Rec.Facility.Rate","per_LimitedAccessHlthFood","X..Fast.Foods","HIV.Rate"
1001,"AUTAUGA","AL","36067",0.839550563918253,546,"Prattville",32.488113,-86.52962,-6,1,0.825719928313803,FALSE,0,0,1,0,8376,23,5.1,4.3,9.4,24,34,32,17,24,363,43,14,0.0003661662,0.0002541296,71,85,68.5,80,54.4,8,21,24,26,300,13.3,0,7.3,10,52,185
1003,"BALDWIN","AL","36507",0.5083995361879,188,"Bay Minette",30.875697,-87.76592,-6,1,0.504461587756405,FALSE,0,0,1,0,7770,13,3.3,3.8,8.8,23,26,25,19,20,306,48,19,0.0007423905,0.0004203447,56,81,69.9,74,62.1,8.1,21,19,28,215,11.8,8,8.7,5,35,179
1003,"BALDWIN","AL","36532",0.674889428623802,2051,"Fairhope",30.512458,-87.88559,-6,1,0.656946530775039,FALSE,0,0,1,0,7770,13,3.3,3.8,8.8,23,26,25,19,20,306,48,19,0.0007423905,0.0004203447,56,81,69.9,74,62.1,8.1,21,19,28,215,11.8,8,8.7,5,35,179
1003,"BALDWIN","AL","36535",1.40638635860318,1496,"Foley",30.396876,-87.69616,-6,1,1.35379596960426,FALSE,0,0,1,0,7770,13,3.3,3.8,8.8,23,26,25,19,20,306,48,19,0.0007423905,0.0004203447,56,81,69.9,74,62.1,8.1,21,19,28,215,11.8,8,8.7,5,35,179
1005,"BARBOUR","AL","36027",0.516406885598974,478,"Eufaula",31.876168,-85.17362,-6,1,0.521704306917831,FALSE,0,0,1,0,9458,22,5,4.1,12.3,24,37,34,13,26,645,74,19,0.0004382121,0.0002942908,109,86,64.8,61,42.1,11.4,40,18,57,150,12.1,8,3.7,11,56,345
1007,"BIBB","AL","35042",0.402979759485774,28,"Centreville",32.963486,-87.13867,-6,1,0.402979759485774,FALSE,0,0.333333333333333,0.666666666666667,0,11544,21,5,5.3,11.9,33,34,37,13,34,327,48,18,0.0002622607,0.0001992032,87,85,57.2,73,42.4,9.9,31,29,38,246,13.7,0,4.4,2,45,100
1009,"BLOUNT","AL","35121",0.649517794461781,279,"Oneonta",33.944897,-86.45813,-6,1,0.6469546751743,FALSE,0,0,1,0,8506,22,5.2,4,7.6,22,32,36,5,28,113,49,19,0.0002091175,0.0001900779,95,84,66,81,43.3,8.3,22,14,26,102,13,7,5.2,1,56,81
1011,"BULLOCK","AL","36089",0.61769879763552,68,"Union Springs",32.145437,-85.70998,-6,1,0.591346080167644,FALSE,0,1,0,0,9884,25,5,NA,14.1,NA,39,31,NA,59,770,86,16,0.0005509642,0.0001589572,117,76,57,71,39,15.3,41,NA,67,386,12.5,0,0,20,50,358
1013,"BUTLER","AL","36037",1.35012959159996,337,"Greenville",31.8007,-86.60591,-6,1,1.31512533994256,FALSE,0,0,1,0,11006,20,3.8,3.2,10.4,29,41,37,10,29,645,62,17,0.0003343363,0.0002820874,143,83,59.9,72,47.3,11.6,36,28,51,370,12.4,0,0,3,47,207
1013,"BUTLER","AL","36033",0.253880899781475,250,"Georgiana",31.655458,-86.76737,-6,1,0.252858047120156,FALSE,0,0,0,0,11006,20,3.8,3.2,10.4,29,41,37,10,29,645,62,17,0.0003343363,0.0002820874,143,83,59.9,72,47.3,11.6,36,28,51,370,12.4,0,0,3,47,207
1015,"CALHOUN","AL","36265",0.826715879814825,346,"Jacksonville",33.824496,-85.77037,-6,1,0.911652606903833,FALSE,0,0,1,0,11097,24,5.1,5,9.2,26,34,34,13,23,566,51,16,0.000625,0.000436872,99,80,60,79,49.2,9.2,32,22,40,725,13.1,0,7.6,10,55,176
1015,"CALHOUN","AL","36201",1.07791465427704,1526,"Anniston",33.658803,-85.85178,-6,1,1.07525516124283,FALSE,0,0,0.5,0,11097,24,5.1,5,9.2,26,34,34,13,23,566,51,16,0.000625,0.000436872,99,80,60,79,49.2,9.2,32,22,40,725,13.1,0,7.6,10,55,176
1015,"CALHOUN","AL","36207",0.815348192126067,3652,"Anniston",33.651673,-85.75895,-6,1,0.800156044061482,FALSE,0,0,1,0,11097,24,5.1,5,9.2,26,34,34,13,23,566,51,16,0.000625,0.000436872,99,80,60,79,49.2,9.2,32,22,40,725,13.1,0,7.6,10,55,176
1017,"CHAMBERS","AL","36854",0.387028430613006,772,"Valley",32.777662,-85.17623,-6,1,0.384438786685789,FALSE,0,0,1,0,10368,40,4.8,4,11.4,24,35,36,8,27,664,64,19,0.0004101723,0.0002601457,89,86,64.5,79,46.5,11.4,39,33,50,583,13.2,0,5.9,9,54,282
1019,"CHEROKEE","AL","35960",0.736613225963901,237,"Centre",34.141067,-85.60472,-6,1,0.741848919170693,FALSE,0,0,0,0,9409,23,5.1,4.3,9.3,25,31,36,14,26,258,52,19,0.000307787,0.0001141292,116,89,64.1,72,45.9,8.7,37,23,28,241,12.9,0,0,0,67,100
1021,"CHILTON","AL","35045",0.369477829296433,132,"Clanton",32.834501,-86.64355,-6,1,0.372669667187242,FALSE,0,1,0,0,10330,21,4.8,4.8,9.8,21,35,31,11,36,197,57,20,0.0001829826,0.000226706,68,84,62.1,73,43.7,8.6,28,23,30,876,13.6,0,6.9,2,56,81
1025,"CLARKE","AL","36451",0.365226402102069,185,"Grove Hill",31.704736,-87.77773,-6,1,0.365942139977119,FALSE,0,0,1,0,9309,NA,3.5,2.4,12.2,20,35,38,13,31,763,42,17,0.0005431831,0.0002686728,108,79,62.2,77,51.1,15.2,35,28,50,491,12.7,12,11.6,11,63,107
1025,"CLARKE","AL","36545",0.245812325596957,132,"Jackson",31.508231,-87.88346,-6,1,0.24597076633447,FALSE,1,0,0,0,9309,NA,3.5,2.4,12.2,20,35,38,13,31,763,42,17,0.0005431831,0.0002686728,108,79,62.2,77,51.1,15.2,35,28,50,491,12.7,12,11.6,11,63,107
1027,"CLAY","AL","36251",0.405553232693062,284,"Ashland",33.243964,-85.84503,-6,1,0.399069013398895,FALSE,0,1,0,0,9915,24,5,4.6,10.9,21,34,38,6,20,395,51,19,0.0003588088,0.0001409443,144,81,58.2,80,41.4,11.8,29,27,30,225,13.2,0,0,2,40,130
1031,"COFFEE","AL","36330",1.10231923791299,973,"Enterprise",31.32579,-85.84117,-6,1,1.06663170147252,FALSE,0,0,1,0,8403,19,3.4,3.8,9.2,19,32,29,12,24,623,49,18,0.0004385965,0.0003152585,95,84,70.2,84,58.7,7.1,24,23,37,341,11.7,0,10,7,51,133
1031,"COFFEE","AL","36323",0.291013786282753,116,"Elba",31.428389,-86.07271,-6,1,0.289299547867452,FALSE,0,0.5,0,0,8403,19,3.4,3.8,9.2,19,32,29,12,24,623,49,18,0.0004385965,0.0003152585,95,84,70.2,84,58.7,7.1,24,23,37,341,11.7,0,10,7,51,133
1033,"COLBERT","AL","35661",0.911064102362927,393,"Muscle Shoals",34.759947,-87.62705,-6,1,0.897774581861712,FALSE,0,0,1,0,10591,24,4.7,4.5,11,30,33,35,10,21,498,55,15,0.0006056935,0.0003275467,70,90,65,75,55,9,28,21,33,439,13.2,5,9.2,5,55,95
1033,"COLBERT","AL","35660",0.551012011242014,1882,"Sheffield",34.759738,-87.69317,-6,1,0.538880730308246,FALSE,0,0,0.5,0,10591,24,4.7,4.5,11,30,33,35,10,21,498,55,15,0.0006056935,0.0003275467,70,90,65,75,55,9,28,21,33,439,13.2,5,9.2,5,55,95
1035,"CONECUH","AL","36401",0.326517337809203,652,"Evergreen",31.461019,-86.96271,-6,1,0.328734352645802,FALSE,0,0,0,0,12942,20,5.1,4.1,11.6,19,33,36,6,48,605,53,19,0.0003782148,0.0001507613,179,75,58.2,79,31.5,14.8,40,NA,53,377,12.1,0,0,15,50,261
1039,"COVINGTON","AL","36442",0.362251970811562,112,"Florala",31.042071,-86.34347,-6,1,0.355718030016693,FALSE,0,0,0,0,9830,23,3.7,4.5,9.6,31,36,37,12,31,471,70,18,0.0006349206,0.0003388682,153,86,66.2,76,44.8,8.9,34,15,39,293,11.8,0,5.3,3,54,105
1039,"COVINGTON","AL","36420",0.688590935702853,1014,"Andalusia",31.279043,-86.48699,-6,1,0.669049296744277,FALSE,0,0,0.5,0,9830,23,3.7,4.5,9.6,31,36,37,12,31,471,70,18,0.0006349206,0.0003388682,153,86,66.2,76,44.8,8.9,34,15,39,293,11.8,0,5.3,3,54,105
1039,"COVINGTON","AL","36467",0.469754430441029,603,"Opp",31.280048,-86.25484,-6,1,0.468067985299455,FALSE,0,1,0,0,9830,23,3.7,4.5,9.6,31,36,37,12,31,471,70,18,0.0006349206,0.0003388682,153,86,66.2,76,44.8,8.9,34,15,39,293,11.8,0,5.3,3,54,105
1041,"CRENSHAW","AL","36049",0.773217727715208,161,"Luverne",31.737407,-86.26946,-6,1,0.803303921588106,FALSE,0,0,0,0,9645,20,4.3,3.4,9.7,15,37,34,13,35,647,55,19,0.000144113,0.0001427552,88,77,58.8,87,42.7,8.7,28,18,45,257,12.3,0,0,16,29,164
1043,"CULLMAN","AL","35058",0.7280955901889,2344,"Cullman",34.223732,-86.7562,-6,1,0.711799602940412,FALSE,0,0,1,0,9060,22,4.1,4.5,9.3,25,32,29,10,33,214,57,19,0.0005717553,0.0003802281,65,88,71.2,77,49,8.1,28,17,24,187,13,0,6.2,3,52,51
1045,"DALE","AL","36360",0.445639081891063,461,"Ozark",31.447119,-85.62908,-6,1,0.398479547481345,FALSE,0,0,0,0,8912,24,5.1,4,8.4,24,36,31,15,21,444,53,15,0.0002781641,0.0002926544,79,84,68.1,76,62.3,8.3,28,17,30,391,11.7,0,4,10,52,299
1047,"DALLAS","AL","36701",0.867058697825628,2066,"Selma",32.429066,-87.03809,-6,1,0.875795038509377,FALSE,0,0,1,0,12899,26,4,3.7,12.6,21,41,34,11,27,1264,77,16,0.0005482456,0.0002467917,85,70,65.3,71,44.2,16.2,50,33,59,750,13.2,0,2.3,12,54,370
1049,"DE KALB","AL","35968",0.977284773631737,911,"Fort Payne",34.460537,-85.76744,-6,1,0.958582459872909,FALSE,0,0,1,0,9153,21,4.7,5.2,8.9,17,34,28,10,25,179,64,24,0.0003094059,0.0002086376,95,88,61.3,86,39.4,11.2,30,26,31,126,13,0,5.6,2,56,74
1051,"ELMORE","AL","36092",0.217478567861316,428,"Wetumpka",32.592889,-86.21902,-6,1,0.279249677772485,FALSE,0,0,0,0,8604,18,4.1,3.7,9,21,32,32,10,26,478,44,14,0.0002890173,0.0001293159,84,84,69,74,55,8.3,21,15,30,143,13.2,0,6.3,7,42,208
1051,"ELMORE","AL","36078",0.354860675524197,402,"Tallassee",32.553036,-85.9136,-6,1,0.359290785974615,FALSE,0,0,0,0,8604,18,4.1,3.7,9,21,32,32,10,26,478,44,14,0.0002890173,0.0001293159,84,84,69,74,55,8.3,21,15,30,143,13.2,0,6.3,7,42,208
1053,"ESCAMBIA","AL","36502",0.808187561635516,355,"Atmore",31.090528,-87.49715,-6,1,0.819221600354633,FALSE,0,0,0,0,10538,26,5,4.8,10.8,21,36,38,7,37,446,71,20,0.0005485464,0.0003133814,130,75,61.8,76,43.7,10.5,32,21,50,516,11.9,0,5.2,8,56,146
1053,"ESCAMBIA","AL","36426",0.397057375419366,594,"Brewton",31.129008,-87.10173,-6,1,0.397890524133219,FALSE,0,0,1,0,10538,26,5,4.8,10.8,21,36,38,7,37,446,71,20,0.0005485464,0.0003133814,130,75,61.8,76,43.7,10.5,32,21,50,516,11.9,0,5.2,8,56,146
1055,"ETOWAH","AL","35901",1.62026999961317,3110,"Gadsden",34.016747,-85.99282,-6,1,1.58910672950944,FALSE,0,0,1,0,11524,23,5,4.5,9.1,27,32,34,11,21,545,56,18,0.0007087172,0.0004037142,92,85,58.2,75,55.9,9.1,30,25,34,401,13,0,6.7,9,61,148
1055,"ETOWAH","AL","35903",2.11062737793319,3351,"Gadsden",33.996698,-85.92496,-6,1,2.09398433326899,FALSE,0,1,0,0,11524,23,5,4.5,9.1,27,32,34,11,21,545,56,18,0.0007087172,0.0004037142,92,85,58.2,75,55.9,9.1,30,25,34,401,13,0,6.7,9,61,148
1057,"FAYETTE","AL","35555",0.674490054312076,391,"Fayette",33.681768,-87.83026,-6,1,0.660148934638023,FALSE,0,0,0,0,11965,31,6.7,5.5,9.6,17,37,33,4,42,302,50,17,0.0004058442,0.0003421143,79,83,63.1,83,39.6,10.4,33,28,34,134,13.3,0,0,1,67,73
1059,"FRANKLIN","AL","35653",0.690615546820881,734,"Russellville",34.519453,-87.78077,-6,1,0.698568498065523,FALSE,0,0,1,0,10556,22,NA,3.9,9,NA,31,37,4,30,202,69,23,0.0004730369,0.0002500625,113,89,56.4,85,42.4,9.4,33,24,31,241,12.9,0,15.8,4,49,55
1061,"GENEVA","AL","36340",0.323401834814569,459,"Geneva",31.043454,-85.87941,-6,1,0.324990019191735,FALSE,0,0,0,0,9114,27,4.1,3.3,8.8,NA,36,35,12,33,433,53,20,0.0001863933,0.0037037037,108,87,63.5,76,51.5,8.3,42,24,42,323,11.4,0,0,1,60,138
1063,"GREENE","AL","35462",0.238877628453356,164,"Eutaw",32.931143,-87.93837,-6,1,0.232020676042819,FALSE,0,1,0,0,10935,20,4,5,15.3,NA,48,38,NA,33,1238,56,18,0.0003332223,0.0001104972,133,79,50.6,66,36.4,14.2,47,NA,55,1143,13.9,0,0,21,25,271
1065,"HALE","AL","36744",0.320764498728536,49,"Greensboro",32.703529,-87.60177,-6,1,0.314579182180824,FALSE,0,0,1,0,13943,23,4.4,4.1,13,NA,44,36,8,43,1326,46,17,0.0063694268,0.0001244555,99,72,59.7,67,39.8,12,41,NA,52,438,13.8,49,0,0,50,202
1069,"HOUSTON","AL","36305",1.19127227414477,3272,"Dothan",31.214832,-85.47402,-6,1,1.17945825276214,FALSE,0,0,1,0,8370,21,4.4,4.3,8.5,19,33,33,12,17,750,56,17,0.0007763975,0.0005524862,63,86,68.1,71,52.4,8.1,29,20,41,538,11.2,0,4.9,7,53,304
1069,"HOUSTON","AL","36301",0.898461390161985,5405,"Dothan",31.180076,-85.4045,-6,1,0.89137567660518,FALSE,0,0,1,0,8370,21,4.4,4.3,8.5,19,33,33,12,17,750,56,17,0.0007763975,0.0005524862,63,86,68.1,71,52.4,8.1,29,20,41,538,11.2,0,4.9,7,53,304
1071,"JACKSON","AL","35768",0.479290978663725,1188,"Scottsboro",34.712327,-86.08387,-6,1,0.489173016795867,FALSE,0,0,0,0,11018,27,5.6,5.5,8.9,27,31,30,8,35,154,53,19,0.000507872,0.0002790179,126,84,55.9,80,47.4,8.7,25,22,26,243,13.3,0,1.9,4,56,59
1073,"JEFFERSON","AL","35209",2.20198459071155,4116,"Birmingham",33.468306,-86.80814,-6,1,2.34238164533136,FALSE,0,0,1,0,10485,17,3.6,3.8,11.6,21,32,29,15,18,800,49,16,0.0009727626,0.0006825939,56,85,69.4,73,64.7,8.7,27,23,42,727,13.3,0,10.5,11,60,543
1073,"JEFFERSON","AL","35233",1.01108189176483,6205,"Birmingham",33.509623,-86.7997,-6,1,1.02841050005706,TRUE,0.333333333333333,0,0.333333333333333,0,10485,17,3.6,3.8,11.6,21,32,29,15,18,800,49,16,0.0009727626,0.0006825939,56,85,69.4,73,64.7,8.7,27,23,42,727,13.3,0,10.5,11,60,543
1073,"JEFFERSON","AL","35205",0.652043420838492,4968,"Birmingham",33.497055,-86.8057,-6,1,0.647947717076931,FALSE,0,1,0,0,10485,17,3.6,3.8,11.6,21,32,29,15,18,800,49,16,0.0009727626,0.0006825939,56,85,69.4,73,64.7,8.7,27,23,42,727,13.3,0,10.5,11,60,543
1073,"JEFFERSON","AL","35021",0.808813061776086,1529,"Bessemer",33.544622,-86.929208,-6,1,0.803949635824486,FALSE,0,0,1,0,10485,17,3.6,3.8,11.6,21,32,29,15,18,800,49,16,0.0009727626,0.0006825939,56,85,69.4,73,64.7,8.7,27,23,42,727,13.3,0,10.5,11,60,543
1073,"JEFFERSON","AL","35213",1.6261980031762,3117,"Birmingham",33.507637,-86.74161,-6,1,1.67318289360759,FALSE,0,0,0,0,10485,17,3.6,3.8,11.6,21,32,29,15,18,800,49,16,0.0009727626,0.0006825939,56,85,69.4,73,64.7,8.7,27,23,42,727,13.3,0,10.5,11,60,543
1073,"JEFFERSON","AL","35211",1.25204533125625,3311,"Birmingham",33.479306,-86.85878,-6,1,1.26250189262881,FALSE,1,0,0,0,10485,17,3.6,3.8,11.6,21,32,29,15,18,800,49,16,0.0009727626,0.0006825939,56,85,69.4,73,64.7,8.7,27,23,42,727,13.3,0,10.5,11,60,543
1073,"JEFFERSON","AL","35235",0.748273545299661,2917,"Birmingham",33.609779,-86.65507,-6,1,0.734931674146795,FALSE,0,0,0,0,10485,17,3.6,3.8,11.6,21,32,29,15,18,800,49,16,0.0009727626,0.0006825939,56,85,69.4,73,64.7,8.7,27,23,42,727,13.3,0,10.5,11,60,543
1077,"LAUDERDALE","AL","35631",0.901103234071826,3901,"Florence",34.869964,-87.706859,-6,1,0.908002906860552,FALSE,0,0,1,0,8601,21,4.9,3.7,10.1,19,32,33,4,18,478,37,15,0.0005070994,0.0004757374,66,88,66.2,81,55.5,8.3,24,19,31,204,13.4,0,7.5,6,49,60
1079,"LAWRENCE","AL","35650",0.527196112077652,504,"Moulton",34.496476,-87.27802,-6,1,0.518474516153607,FALSE,0,1,0,0,10855,21,3.7,4.4,10.1,26,38,36,5,33,402,51,19,0.0001747946,0.0058139535,103,83,61.7,79,46.6,10.1,27,25,32,198,13,7,2.9,2,51,71
1081,"LEE","AL","36801",0.409696308728988,4087,"Opelika",32.660497,-85.39917,-6,1,0.400908515473207,FALSE,0.5,0,0.5,0,7014,19,3.6,4.9,8,20,30,27,19,15,501,25,16,0.0004830918,0.0002892682,58,84,63.4,87,64.6,7.4,21,17,32,320,13,0,5,11,54,152
1083,"LIMESTONE","AL","35611",0.525559777059274,1101,"Athens",34.784028,-87.02767,-6,1,0.510875950676385,FALSE,0,0,1,0,7448,20,3.8,3.3,9.6,22,31,31,10,24,268,49,17,0.0002523341,0.0002554278,76,89,69.7,82,53,7.6,21,25,27,118,13.3,0,6,4,52,150
1089,"MADISON","AL","35801",1.06394037693649,13334,"Huntsville",34.72879,-86.57316,-6,1,1.14626824679265,FALSE,0,0,0,0,7760,14,3.2,3.3,10.6,19,31,25,11,17,453,35,14,0.0008396306,0.0005202914,56,85,69.2,74,69,7.6,20,21,32,478,13.3,0,17,8,56,204
1091,"MARENGO","AL","36732",0.359839548963777,739,"Demopolis",32.495484,-87.84521,-6,1,0.34856354012053,FALSE,0,0,1,0,9873,24,4.5,3.7,12.4,15,40,35,15,27,666,51,17,0.000333667,0.0002355158,104,76,51.6,87,50,11.8,34,23,40,513,13.3,45,9.5,15,59,109
1093,"MARION","AL","35594",0.711611461619005,780,"Winfield",33.925454,-87.78949,-6,1,0.70278145523787,FALSE,0,0,1,0,10664,22,4.6,4.5,9.3,NA,33,36,3,32,150,65,17,0.0006825939,0.0001896094,137,88,59.6,73,48.7,11.3,33,21,31,178,13,0,0,1,53,106
1093,"MARION","AL","35570",0.667110590121487,245,"Hamilton",34.149717,-88.00384,-6,1,0.649444549883916,FALSE,0,0,1,0,10664,22,4.6,4.5,9.3,NA,33,36,3,32,150,65,17,0.0006825939,0.0001896094,137,88,59.6,73,48.7,11.3,33,21,31,178,13,0,0,1,53,106
1095,"MARSHALL","AL","35957",0.528802637361592,1419,"Boaz",34.203621,-86.1728,-6,1,0.520490624845249,FALSE,0,0,0,0,10232,21,4.7,4.5,8.2,30,29,32,13,27,188,76,22,0.0005580357,0.000286533,96,81,60,82,43.2,8.6,28,19,32,285,12.9,0,2.1,7,48,99
1097,"MOBILE","AL","36652",0.724086352295412,7174,"Mobile",30.658865,-88.177975,-6,1,0.728717208838305,FALSE,0,0,1,0,10188,22,4.4,4.5,11.9,24,32,31,15,23,785,59,19,0.0005834306,0.0004454343,72,83,64.1,64,55.9,10.1,30,24,44,612,11.8,0,6.8,11,55,488
1097,"MOBILE","AL","36617",0.418378328533478,200,"Mobile",30.717539,-88.09609,-6,1,0.412540882088379,TRUE,0,0,1,0,10188,22,4.4,4.5,11.9,24,32,31,15,23,785,59,19,0.0005834306,0.0004454343,72,83,64.1,64,55.9,10.1,30,24,44,612,11.8,0,6.8,11,55,488
1097,"MOBILE","AL","36608",0.655726634190381,4849,"Mobile",30.69044,-88.19701,-6,1,0.647616264896874,FALSE,0,0,1,0,10188,22,4.4,4.5,11.9,24,32,31,15,23,785,59,19,0.0005834306,0.0004454343,72,83,64.1,64,55.9,10.1,30,24,44,612,11.8,0,6.8,11,55,488
1097,"MOBILE","AL","36693",0.795471276063395,221,"Mobile",30.630441,-88.15397,-6,1,0.810815674888037,FALSE,0,0,1,0,10188,22,4.4,4.5,11.9,24,32,31,15,23,785,59,19,0.0005834306,0.0004454343,72,83,64.1,64,55.9,10.1,30,24,44,612,11.8,0,6.8,11,55,488
1099,"MONROE","AL","36461",0.500116867728476,446,"Monroeville",31.522093,-87.341108,-6,1,0.500534622567878,FALSE,0,0,0,0,10722,24,4.8,4.2,15.1,21,36,32,15,40,663,58,18,0.0003480682,0.000215378,97,79,65.4,79,37.7,15.3,42,24,51,534,12.4,8,0,17,60,170
1101,"MONTGOMERY","AL","36106",0.823656981501739,3736,"Montgomery",32.354888,-86.27161,-6,1,0.826439020686826,FALSE,0,0,1,0,9321,20,3.9,3.6,11.7,19,34,30,15,15,1175,59,16,0.0008445946,0.0005611672,59,84,67.8,66,60.5,9.1,34,22,50,406,12.8,0,7.4,11,54,728
1101,"MONTGOMERY","AL","36116",0.81626049526441,3714,"Montgomery",32.31324,-86.23672,-6,1,0.827907004209786,FALSE,0,0,1,0,9321,20,3.9,3.6,11.7,19,34,30,15,15,1175,59,16,0.0008445946,0.0005611672,59,84,67.8,66,60.5,9.1,34,22,50,406,12.8,0,7.4,11,54,728
1101,"MONTGOMERY","AL","36117",0.82642827684363,1604,"Montgomery",32.373714,-86.16443,-6,1,0.812748337489613,FALSE,0,0,1,0,9321,20,3.9,3.6,11.7,19,34,30,15,15,1175,59,16,0.0008445946,0.0005611672,59,84,67.8,66,60.5,9.1,34,22,50,406,12.8,0,7.4,11,54,728
1103,"MORGAN","AL","35609",0.355890006878474,2405,"Decatur",34.495365,-86.82993,-6,1,0.337272836179767,FALSE,0,1,0,0,8920,14,4.1,3.8,9.2,25,33,27,10,23,433,52,19,0.0005602241,0.0004518753,95,84,68.5,71,55.2,8.7,27,27,31,250,12.9,0,5.9,4,60,114
1103,"MORGAN","AL","35601",1.31095967438067,1053,"Decatur",34.595332,-86.98786,-6,1,1.28915233933976,FALSE,0,1,0,0,8920,14,4.1,3.8,9.2,25,33,27,10,23,433,52,19,0.0005602241,0.0004518753,95,84,68.5,71,55.2,8.7,27,27,31,250,12.9,0,5.9,4,60,114
1107,"PICKENS","AL","35447",0.505379637855015,375,"Carrollton",33.254197,-88.16866,-6,1,0.503616252428384,FALSE,0,0,1,0,11568,26,5,3.3,12.7,14,36,33,8,31,532,42,17,0.0003549876,0.005,88,87,65,75,40.7,10.7,35,30,48,268,13.6,0,10.1,2,44,153
1109,"PIKE","AL","36081",0.663302653466125,410,"Troy",31.852825,-85.92314,-6,1,0.670039705977761,FALSE,0,0,0,0,10834,22,4.6,3.6,10.1,19,37,32,11,28,1021,35,18,0.0005461496,0.0002290426,96,82,67.3,69,56.3,7.8,34,21,45,357,12.3,0,6.1,6,57,353
1111,"RANDOLPH","AL","36278",0.65699901168656,133,"Wedowee",33.338853,-85.509,-6,1,0.634542787133596,FALSE,0,0,1,0,11073,21,4.5,4.5,10.2,28,32,35,13,35,249,54,18,0.0003926188,0.0001285678,115,84,55.1,81,43.6,11,31,15,44,248,13.1,7,4.4,2,53,61
1113,"RUSSELL","AL","36867",0.697793271729123,776,"Phenix City",32.492304,-85.01943,-6,1,0.677614581722734,FALSE,0,0.5,0.5,0,12305,20,4.9,4.4,11,NA,39,37,NA,28,816,57,17,0.0003007519,0.0001487652,62,80,57.9,65,53.3,10.1,30,21,47,451,12.5,0,5.6,8,65,347
1117,"SHELBY","AL","35007",1.12693001867238,2519,"Alabaster",33.232422,-86.80871,-6,1,1.10888339445753,FALSE,0,0,1,0,6212,13,3.3,3.6,8.5,19,28,24,12,16,191,26,12,0.0008532423,0.0004789272,57,85,75,86,74.1,6.3,12,20,19,156,13.4,0,10.7,4,46,75
1119,"SUMTER","AL","36925",0.331765428137914,119,"York",32.487726,-88.2679,-6,1,0.282793163278226,FALSE,0,0,1,0,10937,25,4.1,4.2,13.6,16,42,33,14,32,1075,34,19,0.0004361099,0.0001381597,64,84,67,80,50.4,14.5,46,NA,61,NA,13.6,0,7.3,11,54,270
1121,"TALLADEGA","AL","35150",0.940750250133175,1030,"Sylacauga",33.185782,-86.25105,-6,1,0.954225230259476,FALSE,0,0,0,0,11323,29,5.3,5.1,12.7,23,37,35,10,24,514,55,16,0.0003170577,0.000187864,101,81,57.3,74,46.2,10.3,35,28,39,370,13.2,0,2.4,6,53,197
1121,"TALLADEGA","AL","35161",0.756822075404552,597,"Talladega",33.420206,-86.102782,-6,1,0.759849253376824,FALSE,0,0,1,0,11323,29,5.3,5.1,12.7,23,37,35,10,24,514,55,16,0.0003170577,0.000187864,101,81,57.3,74,46.2,10.3,35,28,39,370,13.2,0,2.4,6,53,197
1123,"TALLAPOOSA","AL","35010",0.388231319876122,971,"Alexander City",32.903432,-85.92669,-6,1,0.378948680699799,FALSE,0,0,0,0,9864,23,4.8,5.2,12,29,37,31,14,23,428,59,17,0.0003853565,0.0003087373,80,76,64.8,77,48.1,11.5,30,32,34,539,13.3,4,7.2,5,51,140
1123,"TALLAPOOSA","AL","36853",0.231063608918446,228,"Dadeville",32.787441,-85.79955,-6,1,0.228827389641068,FALSE,0,0,0,0,9864,23,4.8,5.2,12,29,37,31,14,23,428,59,17,0.0003853565,0.0003087373,80,76,64.8,77,48.1,11.5,30,32,34,539,13.3,4,7.2,5,51,140
1125,"TUSCALOOSA","AL","35401",0.853384202159531,8193,"Tuscaloosa",33.193818,-87.56843,-6,1,0.840439011282764,FALSE,0,0,1,0,9446,17,4.3,4.3,11.6,22,35,29,12,19,620,31,18,0.0006872852,0.000443066,88,87,72.8,67,61.2,8.2,27,18,37,447,13.6,0,6.7,7,60,211
1127,"WALKER","AL","35502",0.916881201036753,1772,"Jasper",33.901993,-87.293888,-6,1,0.903779883478292,FALSE,0,0,1,0,14300,33,6.1,5.6,10.2,28,35,38,7,37,388,59,17,0.0004777831,0.0003537319,83,87,63.3,77,50.8,9.5,30,23,29,212,13.2,0,7.5,4,54,115
1131,"WILCOX","AL","36726",0.255302789398707,12,"Camden",32.008444,-87.25911,-6,1,0.255302789398707,FALSE,0,0,1,0,12975,29,4.1,4.9,12.9,NA,43,35,NA,47,1071,52,18,0.0004310345,0.0001707942,71,73,47.9,72,34.4,19.3,51,NA,69,193,12.9,0,0,28,44,151
1133,"WINSTON","AL","35565",0.510905643751835,657,"Haleyville",34.225425,-87.6118,-6,1,0.52841516899232,FALSE,0,0,1,0,12621,18,4.4,6.3,9.8,21,36,34,12,39,212,56,19,0.0003279764,0.0001619695,180,83,55,87,42.3,13.4,30,28,35,186,13,0,0,1,33,48
2020,"ANCHORAGE","AK","99519",1.31833736809452,2613,"Anchorage",61.108864,-149.440311,-9,1,1.31369683439184,FALSE,0,0,1,0,6827,13,3.4,2.9,6.3,17,26,22,19,9,908,39,18,0.0009208103,0.0009708738,44,66,57.2,72,70.3,6.1,12,16,30,887,NA,34,12.6,5,50,161
2020,"ANCHORAGE","AK","99508",1.03501977046066,1403,"Anchorage",61.203953,-149.8144,-9,1,1.01816329464285,FALSE,0,0,1,0,6827,13,3.4,2.9,6.3,17,26,22,19,9,908,39,18,0.0009208103,0.0009708738,44,66,57.2,72,70.3,6.1,12,16,30,887,NA,34,12.6,5,50,161
2050,"BETHEL","AK","99559",0.36834714370182,137,"Bethel",60.766603,-161.88006,-9,1,0.368288273337344,FALSE,0,1,0,0,13345,20,3.5,2.8,5.5,31,30,28,17,NA,2445,78,28,0.0009354537,0.0012048193,132,33,NA,42,41.5,14.7,30,48,30,NA,NA,18,5.8,39,55,163
2090,"FAIRBANKS NORTH STAR","AK","99701",1.09006295759117,660,"Fairbanks",64.83507,-147.72045,-9,1,0.992625198351063,FALSE,0,0,1,0,5740,11,3.5,3,5.6,21,28,23,21,12,823,39,20,0.0007127584,0.0009363296,41,77,58.5,67,67.4,6.7,11,17,30,NA,NA,2,9.2,10,42,68
2110,"JUNEAU","AK","99801",0.828645612159091,174,"Juneau",58.358599,-134.54749,-9,1,0.836778903248728,FALSE,0,0,1,0,5867,11,3.4,3,4.9,19,26,18,22,7,563,27,19,0.0012106538,0.000929368,44,75,68.8,72,74.2,5.3,10,17,36,426,NA,0,22.3,6,40,88
2122,"KENAI PENINSULA","AK","99669",0.969393437758467,344,"Soldotna",60.489536,-151.02091,-9,1,0.973630208684897,FALSE,0,0,1,0,8656,14,3.6,3.2,4.6,22,29,24,18,19,338,31,24,0.0008097166,0.0005760369,57,81,58.3,73,60,9.3,14,17,29,NA,NA,5,19.8,6,33,52
2170,"MATANUSKA SUSITNA","AK","99645",1.30689114905516,793,"Palmer",61.598203,-149.04109,-9,1,1.3184170172819,FALSE,0,0,0,0,6519,14,3.8,3.4,6.1,28,30,24,18,15,453,33,21,0.0005235602,0.0004280822,58,79,59.1,70,61.6,8.9,15,17,24,NA,NA,1,8.9,6,47,38
2220,"SITKA","AK","99835",0.513030007611395,18,"Sitka",57.064376,-135.3227,-9,1,0.513030007611395,FALSE,0,0,1,0,7377,13,3.5,2.7,5.1,21,30,20,25,NA,563,26,26,0.0021321962,0.0010917031,72,54,57.1,83,74.5,6.1,11,13,35,240,NA,1,11.2,6,23,81
4001,"APACHE","AZ","86503",0.319867320056909,160,"Chinle",36.165779,-109.61956,-7,0,0.319736434948572,FALSE,0,0,1,0,14039,20,3.9,4.3,7.2,16,33,28,13,59,646,61,21,0.0003211304,0.0005238345,96,28,31.1,70,43.2,18.9,44,37,46,75,10.4,45,2.8,44,53,111
4001,"APACHE","AZ","86504",0.396315933817645,216,"Fort Defiance",35.771067,-109.17878,-7,0,0.386737897790863,FALSE,0,0,0,0,14039,20,3.9,4.3,7.2,16,33,28,13,59,646,61,21,0.0003211304,0.0005238345,96,28,31.1,70,43.2,18.9,44,37,46,75,10.4,45,2.8,44,53,111
4003,"COCHISE","AZ","85635",0.852628661626899,1189,"Sierra Vista",31.562546,-110.24288,-7,0,0.832467102142713,FALSE,0,0,0,0,7828,18,4.2,3.7,8.1,21,24,24,14,22,299,55,17,0.0003872967,0.0003696858,64,74,61,79,62.2,8.8,31,21,33,564,12.4,15,10.6,12,39,128
4005,"COCONINO","AZ","86045",0.511112666170596,267,"Tuba City",36.061184,-111.06828,-7,0,0.502461481199173,FALSE,0,0,1,0,7342,12,3,3,8,15,25,17,16,29,542,38,21,0.0007358352,0.0006277464,61,54,51.8,76,67.3,9.2,27,19,39,372,11.1,8,5.9,13,43,122
4005,"COCONINO","AZ","86001",1.22163930881142,2092,"Flagstaff",35.279872,-111.72256,-7,0,1.30933292840283,FALSE,0,0,1,0,7342,12,3,3,8,15,25,17,16,29,542,38,21,0.0007358352,0.0006277464,61,54,51.8,76,67.3,9.2,27,19,39,372,11.1,8,5.9,13,43,122
4007,"GILA","AZ","85541",1.5605575532239,622,"Payson",34.243578,-111.28137,-7,0,1.53611291110067,FALSE,0,0,1,0,10843,23,4.9,5.5,8.6,26,26,25,16,31,235,83,20,0.0007293946,0.0004595588,66,66,65.9,72,40.4,10.8,38,24,42,488,12,19,9.3,12,39,46
4009,"GRAHAM","AZ","85546",0.868019154693312,239,"Safford",32.800222,-109.69052,-7,0,0.833302177879089,FALSE,0,0,1,0,8077,21,4.4,4.3,7.7,15,33,27,14,22,344,59,19,0.0004849661,0.0004161465,82,59,55.2,82,51.6,10.5,31,19,38,1627,12.6,0,8.1,14,52,127
4012,"LA PAZ","AZ","85344",0.709608285227388,193,"Parker",34.100704,-114.30462,-7,0,0.698150649156099,FALSE,0,0,1,0,12621,23,5.2,4.8,5.7,17,30,34,22,41,107,82,26,0.0004397537,0.0003835827,76,69,49.7,75,41.1,10.3,38,24,46,402,12.5,2,0,19,42,NA
4013,"MARICOPA","AZ","85201",0.990113398202188,517,"Mesa",33.432177,-111.84701,-7,0,0.946047919510724,FALSE,0,1,0,0,6247,15,3.1,3.1,7,17,24,19,17,13,408,55,19,0.0006706908,0.0006038647,52,82,69.4,80,62.1,8.4,25,19,33,422,12.2,0,6.7,4,54,260
4013,"MARICOPA","AZ","85031",0.98732943717907,249,"Phoenix",33.493496,-112.17108,-7,0,1.00776435780254,FALSE,0,0,1,0,6247,15,3.1,3.1,7,17,24,19,17,13,408,55,19,0.0006706908,0.0006038647,52,82,69.4,80,62.1,8.4,25,19,33,422,12.2,0,6.7,4,54,260
4013,"MARICOPA","AZ","85032",0.943212773744353,527,"Phoenix",33.62414,-112.00416,-7,0,0.95109822760953,FALSE,0,0,1,0,6247,15,3.1,3.1,7,17,24,19,17,13,408,55,19,0.0006706908,0.0006038647,52,82,69.4,80,62.1,8.4,25,19,33,422,12.2,0,6.7,4,54,260
4013,"MARICOPA","AZ","85027",1.12773668631195,1520,"Phoenix",33.698731,-112.11429,-7,0,1.12492066905517,FALSE,1,0,0,0,6247,15,3.1,3.1,7,17,24,19,17,13,408,55,19,0.0006706908,0.0006038647,52,82,69.4,80,62.1,8.4,25,19,33,422,12.2,0,6.7,4,54,260
4013,"MARICOPA","AZ","85054",0.813540024254458,3614,"Phoenix",33.689558,-111.96463,-7,0,0.815512397568206,TRUE,0,0.5,0.5,0,6247,15,3.1,3.1,7,17,24,19,17,13,408,55,19,0.0006706908,0.0006038647,52,82,69.4,80,62.1,8.4,25,19,33,422,12.2,0,6.7,4,54,260
4013,"MARICOPA","AZ","85037",1.16665446579374,2083,"Phoenix",33.493006,-112.25539,-7,0,1.14706826093037,FALSE,0,0,1,0,6247,15,3.1,3.1,7,17,24,19,17,13,408,55,19,0.0006706908,0.0006038647,52,82,69.4,80,62.1,8.4,25,19,33,422,12.2,0,6.7,4,54,260
4013,"MARICOPA","AZ","85008",1.17597485643165,137,"Phoenix",33.466393,-112.0008,-7,0,1.14923374181535,TRUE,0,0,1,0,6247,15,3.1,3.1,7,17,24,19,17,13,408,55,19,0.0006706908,0.0006038647,52,82,69.4,80,62.1,8.4,25,19,33,422,12.2,0,6.7,4,54,260
4013,"MARICOPA","AZ","85296",1.50310384616101,2034,"Gilbert",33.319722,-111.76078,-7,0,1.46748380303791,FALSE,0,0,1,0,6247,15,3.1,3.1,7,17,24,19,17,13,408,55,19,0.0006706908,0.0006038647,52,82,69.4,80,62.1,8.4,25,19,33,422,12.2,0,6.7,4,54,260
4013,"MARICOPA","AZ","85255",1.07929751182306,612,"Scottsdale",33.697268,-111.88321,-7,0,1.07996760273289,FALSE,0,0,1,0,6247,15,3.1,3.1,7,17,24,19,17,13,408,55,19,0.0006706908,0.0006038647,52,82,69.4,80,62.1,8.4,25,19,33,422,12.2,0,6.7,4,54,260
4013,"MARICOPA","AZ","85020",1.05679316947965,2259,"Phoenix",33.563663,-112.05519,-7,0,1.06968804005512,FALSE,0,0,1,0,6247,15,3.1,3.1,7,17,24,19,17,13,408,55,19,0.0006706908,0.0006038647,52,82,69.4,80,62.1,8.4,25,19,33,422,12.2,0,6.7,4,54,260
4013,"MARICOPA","AZ","85202",0.983025542167794,3791,"Mesa",33.381097,-111.8756,-7,0,0.988066826076693,FALSE,0,0,1,0,6247,15,3.1,3.1,7,17,24,19,17,13,408,55,19,0.0006706908,0.0006038647,52,82,69.4,80,62.1,8.4,25,19,33,422,12.2,0,6.7,4,54,260
4013,"MARICOPA","AZ","85206",1.01359163372923,7579,"Mesa",33.400306,-111.72452,-7,0,1.01750429771328,FALSE,0.5,0,0.5,0,6247,15,3.1,3.1,7,17,24,19,17,13,408,55,19,0.0006706908,0.0006038647,52,82,69.4,80,62.1,8.4,25,19,33,422,12.2,0,6.7,4,54,260
4013,"MARICOPA","AZ","85234",1.08040779813673,1457,"Gilbert",33.36344,-111.75093,-7,0,1.08252919418314,FALSE,0,0,1,0,6247,15,3.1,3.1,7,17,24,19,17,13,408,55,19,0.0006706908,0.0006038647,52,82,69.4,80,62.1,8.4,25,19,33,422,12.2,0,6.7,4,54,260
4013,"MARICOPA","AZ","85351",1.16033324700432,6316,"Sun City",33.60642,-112.28316,-7,0,1.17146620249068,FALSE,0,0,1,0,6247,15,3.1,3.1,7,17,24,19,17,13,408,55,19,0.0006706908,0.0006038647,52,82,69.4,80,62.1,8.4,25,19,33,422,12.2,0,6.7,4,54,260
4013,"MARICOPA","AZ","85225",1.05255737807252,204,"Chandler",33.316349,-111.83064,-7,0,1.05255737807252,FALSE,0,0,1,0,6247,15,3.1,3.1,7,17,24,19,17,13,408,55,19,0.0006706908,0.0006038647,52,82,69.4,80,62.1,8.4,25,19,33,422,12.2,0,6.7,4,54,260
4013,"MARICOPA","AZ","85395",0.91615970454994,1328,"Peoria",33.580089,-112.246311,-7,0,0.924216534502817,FALSE,0.5,0,0.5,0,6247,15,3.1,3.1,7,17,24,19,17,13,408,55,19,0.0006706908,0.0006038647,52,82,69.4,80,62.1,8.4,25,19,33,422,12.2,0,6.7,4,54,260
4013,"MARICOPA","AZ","85006",1.16562321214672,4423,"Phoenix",33.466392,-112.04875,-7,0,1.16838877176769,TRUE,0,0,1,0,6247,15,3.1,3.1,7,17,24,19,17,13,408,55,19,0.0006706908,0.0006038647,52,82,69.4,80,62.1,8.4,25,19,33,422,12.2,0,6.7,4,54,260
4013,"MARICOPA","AZ","85260",1.07585585207743,3705,"Scottsdale",33.606004,-111.88699,-7,0,1.08404919624211,FALSE,0,0,1,0,6247,15,3.1,3.1,7,17,24,19,17,13,408,55,19,0.0006706908,0.0006038647,52,82,69.4,80,62.1,8.4,25,19,33,422,12.2,0,6.7,4,54,260
4013,"MARICOPA","AZ","85015",0.874075368492523,1861,"Phoenix",33.50689,-112.10262,-7,0,0.917312089115095,FALSE,0,0,1,0,6247,15,3.1,3.1,7,17,24,19,17,13,408,55,19,0.0006706908,0.0006038647,52,82,69.4,80,62.1,8.4,25,19,33,422,12.2,0,6.7,4,54,260
4013,"MARICOPA","AZ","85013",1.33056905540687,2324,"Phoenix",33.50711,-112.08483,-7,0,1.29271798171486,TRUE,0,0,1,0,6247,15,3.1,3.1,7,17,24,19,17,13,408,55,19,0.0006706908,0.0006038647,52,82,69.4,80,62.1,8.4,25,19,33,422,12.2,0,6.7,4,54,260
4013,"MARICOPA","AZ","85306",1.06793860582629,3711,"Glendale",33.624546,-112.1767,-7,0,1.04937789174694,FALSE,0,0,1,0,6247,15,3.1,3.1,7,17,24,19,17,13,408,55,19,0.0006706908,0.0006038647,52,82,69.4,80,62.1,8.4,25,19,33,422,12.2,0,6.7,4,54,260
4013,"MARICOPA","AZ","85016",0.517643849978927,52,"Phoenix",33.503742,-112.03235,-7,0,0.503957897710546,FALSE,0,0,1,0,6247,15,3.1,3.1,7,17,24,19,17,13,408,55,19,0.0006706908,0.0006038647,52,82,69.4,80,62.1,8.4,25,19,33,422,12.2,0,6.7,4,54,260
4013,"MARICOPA","AZ","85224",1.44155369986763,2752,"Chandler",33.328951,-111.8735,-7,0,1.42771648132018,FALSE,0,0,1,0,6247,15,3.1,3.1,7,17,24,19,17,13,408,55,19,0.0006706908,0.0006038647,52,82,69.4,80,62.1,8.4,25,19,33,422,12.2,0,6.7,4,54,260
4013,"MARICOPA","AZ","85308",0.900610287600661,1266,"Glendale",33.657722,-112.17825,-7,0,0.883197457136388,FALSE,0,0,1,0,6247,15,3.1,3.1,7,17,24,19,17,13,408,55,19,0.0006706908,0.0006038647,52,82,69.4,80,62.1,8.4,25,19,33,422,12.2,0,6.7,4,54,260
4013,"MARICOPA","AZ","85251",1.12056799586995,2797,"Scottsdale",33.494152,-111.92079,-7,0,1.14485434388339,TRUE,0,0,1,0,6247,15,3.1,3.1,7,17,24,19,17,13,408,55,19,0.0006706908,0.0006038647,52,82,69.4,80,62.1,8.4,25,19,33,422,12.2,0,6.7,4,54,260
4013,"MARICOPA","AZ","85375",1.17205049558553,5057,"Sun City West",33.683352,-112.36474,-7,0,1.17319305055788,FALSE,0,0,1,0,6247,15,3.1,3.1,7,17,24,19,17,13,408,55,19,0.0006706908,0.0006038647,52,82,69.4,80,62.1,8.4,25,19,33,422,12.2,0,6.7,4,54,260
4015,"MOHAVE","AZ","86426",1.26287977837265,641,"Fort Mohave",35.013495,-114.58524,-7,0,1.28014029443646,FALSE,0,0,1,0,9828,20,4.2,4.3,6.9,28,27,30,17,21,139,60,20,0.0004962779,0.0003526093,69,81,64.2,73,49.4,11,37,25,34,218,12.4,28,6.4,17,46,79
4015,"MOHAVE","AZ","86442",2.29495927238972,2013,"Bullhead City",35.097719,-114.59734,-7,0,2.28650120149175,FALSE,0,0,1,0,9828,20,4.2,4.3,6.9,28,27,30,17,21,139,60,20,0.0004962779,0.0003526093,69,81,64.2,73,49.4,11,37,25,34,218,12.4,28,6.4,17,46,79
4015,"MOHAVE","AZ","86403",1.17697746170736,2140,"Lake Havasu City",34.483582,-114.33694,-7,0,1.1760356169448,FALSE,0,0,1,0,9828,20,4.2,4.3,6.9,28,27,30,17,21,139,60,20,0.0004962779,0.0003526093,69,81,64.2,73,49.4,11,37,25,34,218,12.4,28,6.4,17,46,79
4017,"NAVAJO","AZ","85941",0.41866026098516,73,"Whiteriver",33.849439,-110.03334,-7,0,0.431714017044846,FALSE,0,0,1,0,11848,17,3.9,3.6,8.1,17,32,25,12,44,559,69,19,0.000567215,0.0005558644,66,49,48.7,72,51.1,16,45,24,40,372,10.6,15,2.8,18,47,71
4017,"NAVAJO","AZ","85901",0.894361164531789,599,"Show Low",34.271427,-110.03676,-7,0,0.867480458525449,FALSE,0,0,1,0,11848,17,3.9,3.6,8.1,17,32,25,12,44,559,69,19,0.000567215,0.0005558644,66,49,48.7,72,51.1,16,45,24,40,372,10.6,15,2.8,18,47,71
4019,"PIMA","AZ","85704",0.91919497097509,589,"Tucson",32.32764,-110.98801,-7,0,0.920314719092389,FALSE,0,0,1,0,7390,15,3.7,3.4,7.2,16,26,20,16,14,421,47,18,0.0008006405,0.0005120328,42,80,72.3,74,63.6,8.4,29,19,37,463,12.4,3,10.5,7,50,221
4019,"PIMA","AZ","85741",1.1161167523732,3235,"Tucson",32.338126,-111.04259,-7,0,1.1170520022567,FALSE,0,0,1,0,7390,15,3.7,3.4,7.2,16,26,20,16,14,421,47,18,0.0008006405,0.0005120328,42,80,72.3,74,63.6,8.4,29,19,37,463,12.4,3,10.5,7,50,221
4019,"PIMA","AZ","85712",0.81040560662283,4416,"Tucson",32.249551,-110.8878,-7,0,0.847868675133157,FALSE,0,0,1,0,7390,15,3.7,3.4,7.2,16,26,20,16,14,421,47,18,0.0008006405,0.0005120328,42,80,72.3,74,63.6,8.4,29,19,37,463,12.4,3,10.5,7,50,221
4019,"PIMA","AZ","85745",0.946118877553644,2094,"Tucson",32.242724,-111.0209,-7,0,0.953231258062269,FALSE,0,0,1,0,7390,15,3.7,3.4,7.2,16,26,20,16,14,421,47,18,0.0008006405,0.0005120328,42,80,72.3,74,63.6,8.4,29,19,37,463,12.4,3,10.5,7,50,221
4019,"PIMA","AZ","85711",0.99776566745096,3144,"Tucson",32.216326,-110.88511,-7,0,1.01288685238753,FALSE,0,0,1,0,7390,15,3.7,3.4,7.2,16,26,20,16,14,421,47,18,0.0008006405,0.0005120328,42,80,72.3,74,63.6,8.4,29,19,37,463,12.4,3,10.5,7,50,221
4019,"PIMA","AZ","85724",1.11657648234524,2540,"Tucson",32.240571,-110.944343,-7,0,1.14732962494177,TRUE,0,0,1,0,7390,15,3.7,3.4,7.2,16,26,20,16,14,421,47,18,0.0008006405,0.0005120328,42,80,72.3,74,63.6,8.4,29,19,37,463,12.4,3,10.5,7,50,221
4019,"PIMA","AZ","85713",0.747163568327057,460,"Tucson",32.194909,-110.9757,-7,0,0.721563756264304,FALSE,0,1,0,0,7390,15,3.7,3.4,7.2,16,26,20,16,14,421,47,18,0.0008006405,0.0005120328,42,80,72.3,74,63.6,8.4,29,19,37,463,12.4,3,10.5,7,50,221
4021,"PINAL","AZ","85222",0.900821421556563,1576,"Casa Grande",32.878138,-111.73499,-7,0,0.890829141869167,FALSE,0,0,1,0,6588,17,3.6,3.4,6.8,17,30,24,19,20,253,65,19,0.0001327316,0.0002192982,65,78,69.2,71,55.7,10.3,23,19,32,238,12.8,7,2.3,5,56,176
4025,"YAVAPAI","AZ","86301",0.88012683192379,2514,"Prescott",34.589477,-112.44726,-7,0,0.85929747295996,FALSE,0,0.5,0.5,0,7372,18,4,4.1,7.2,20,22,21,15,20,114,51,20,0.0006207325,0.0005497526,33,82,70.1,78,59.3,10,29,18,35,330,12.2,6,10.9,12,42,80
4025,"YAVAPAI","AZ","86314",0.751396169406471,694,"Prescott Valley",34.621743,-112.32176,-7,0,0.691852875307498,FALSE,0,0,1,0,7372,18,4,4.1,7.2,20,22,21,15,20,114,51,20,0.0006207325,0.0005497526,33,82,70.1,78,59.3,10,29,18,35,330,12.2,6,10.9,12,42,80
4025,"YAVAPAI","AZ","86326",1.48757340426981,1075,"Cottonwood",34.723788,-112.01002,-7,0,1.47822531998344,FALSE,0,0,1,0,7372,18,4,4.1,7.2,20,22,21,15,20,114,51,20,0.0006207325,0.0005497526,33,82,70.1,78,59.3,10,29,18,35,330,12.2,6,10.9,12,42,80
4027,"YUMA","AZ","85364",0.921800319562094,4227,"Yuma",32.704499,-114.64644,-7,0,0.918689404822077,FALSE,0,0,0,0,5843,23,3.8,3,6.1,14,29,24,15,14,417,72,24,0.0004319654,0.0002712968,64,80,66.1,78,52.3,27.1,32,25,36,388,11.6,1,5.1,11,57,106
5001,"ARKANSAS","AR","72160",0.421494129186038,475,"Stuttgart",34.479852,-91.53854,-6,1,0.413634746936978,FALSE,0,1,0,0,11046,29,4.5,4.4,11.8,22,36,37,13,25,684,66,19,0.0005265929,0.000363901,107,90,52.1,83,44.3,10.8,28,25,37,366,12.2,12,5.3,8,59,170
5005,"BAXTER","AR","72653",0.459105427221291,3897,"Mountain Home",36.329026,-92.35781,-6,1,0.450685853884345,FALSE,1,0,0,0,9680,17,3.3,3.7,7.3,24,28,33,15,27,289,51,22,0.000746826,0.0004512635,84,86,69.9,80,55.5,8.6,28,23,29,111,11.6,0,9.6,5,40,62
5007,"BENTON","AR","72758",0.61715477057798,1873,"Rogers",36.306616,-94.14622,-6,1,0.616938070208723,FALSE,0,0,1,0,6504,13,3.2,2.8,7.2,18,28,28,14,16,169,52,19,0.0005428882,0.0004312204,60,81,66.3,87,58.4,6.3,18,16,23,241,10.5,10,10.3,6,53,90
5007,"BENTON","AR","72761",0.753725874602909,509,"Siloam Springs",36.179905,-94.50208,-6,1,0.752312182379775,FALSE,0,0,1,0,6504,13,3.2,2.8,7.2,18,28,28,14,16,169,52,19,0.0005428882,0.0004312204,60,81,66.3,87,58.4,6.3,18,16,23,241,10.5,10,10.3,6,53,90
5009,"BOONE","AR","72601",0.633372385901003,1306,"Harrison",36.236984,-93.09345,-6,1,0.603050896422624,FALSE,0,0,1,0,8359,17,3.6,4.1,6.2,17,29,32,6,24,306,55,21,0.0007587253,0.0005083884,93,82,56.4,82,50,7.4,27,16,29,317,11.2,12,2.7,11,53,48
5027,"COLUMBIA","AR","71754",0.416216576288849,457,"Magnolia",33.242571,-93.22996,-6,1,0.41642580303549,FALSE,0,0,1,0,10652,18,3.2,4.3,9.3,16,32,30,12,21,1234,52,19,0.0005307856,0.000348675,89,81,58.9,86,56.6,9.4,37,29,49,445,11.5,2,16.3,7,58,139
5031,"CRAIGHEAD","AR","72401",0.469136127222233,7787,"Jonesboro",35.844795,-90.68443,-6,1,0.526687956150614,FALSE,0,0,0,0,8849,20,3.8,3.7,8.3,19,33,32,9,24,699,51,21,0.0010040161,0.0006082725,74,85,62.3,85,57.8,7.3,28,19,38,368,13,0,7.2,10,54,158
5033,"CRAWFORD","AR","72956",1.03373416709563,442,"Van Buren",35.456536,-94.34581,-6,1,1.04281559967786,FALSE,0,0,1,0,9795,18,3.7,4,8,21,33,30,14,18,194,60,23,0.0004840271,0.0001759015,86,85,67.5,88,49.1,8.5,27,18,33,249,11.1,14,6.5,10,42,80
5035,"CRITTENDEN","AR","72301",0.819186088657643,1058,"West Memphis",35.150009,-90.17636,-6,1,0.798901159614332,FALSE,0,0,1,0,13082,22,4.4,4.5,12.4,23,38,33,11,20,1271,90,19,0.0004321521,0.0004262575,84,83,59,74,49.5,12.6,40,27,62,1626,12.9,5,2,4,64,527
5043,"DREW","AR","71655",0.316823100799103,512,"Monticello",33.62086,-91.76272,-6,1,0.310014401260651,FALSE,0,0,1,0,9634,19,4.2,4.6,10.1,21,36,33,12,31,729,48,19,0.0004861449,0.0003108486,112,84,58.9,85,54,11.7,31,31,43,429,12,4,5.4,7,54,96
5045,"FAULKNER","AR","72034",0.578373290251905,2009,"Conway",35.074617,-92.444426,-6,1,0.572444757983723,FALSE,0,0,1,0,7296,18,4.2,3.5,7.7,18,33,28,14,19,423,36,18,0.0004737091,0.0003473428,54,86,63.3,87,62.5,7,18,17,29,301,12,23,9.6,9,48,84
5051,"GARLAND","AR","71901",1.64241221961088,1598,"Hot Springs National Park",34.506487,-93.01941,-6,1,1.63451639258266,FALSE,0,0,1,0,9962,18,4.2,5.3,9.2,26,28,28,15,25,334,57,23,0.0007072136,0.0005491488,59,85,60.8,82,51.9,8.3,32,21,38,629,11.5,0,10.4,12,42,182
5051,"GARLAND","AR","71903",0.815900383773051,3723,"Hot Springs National Park",34.581374,-93.099403,-6,1,0.810468963496304,FALSE,0,0,1,0,9962,18,4.2,5.3,9.2,26,28,28,15,25,334,57,23,0.0007072136,0.0005491488,59,85,60.8,82,51.9,8.3,32,21,38,629,11.5,0,10.4,12,42,182
5055,"GREENE","AR","72450",0.501813086839517,1336,"Paragould",36.065711,-90.5102,-6,1,0.48684470458095,FALSE,0,0,1,0,10162,17,3.9,3.9,7.6,22,34,28,12,27,304,66,20,0.000569152,0.0002805836,112,79,55.1,83,47.9,10,26,19,27,272,12.8,0,9.5,8,54,94
5057,"HEMPSTEAD","AR","71801",0.594703868352598,451,"Hope",33.657969,-93.59486,-6,1,0.583196872742145,FALSE,0,0,1,0,9490,NA,3.7,4.4,10.8,21,36,32,10,28,1106,78,24,0.0002656042,0.0002621232,114,84,61.6,84,45.7,8.5,38,NA,37,495,11.4,7,13.3,11,48,129
5059,"HOT SPRING","AR","72104",0.565977805250763,659,"Malvern",34.364093,-92.8146,-6,1,0.52370888138622,FALSE,0,0,1,0,9973,27,4.7,5.3,8,22,35,35,10,30,416,65,20,0.0002428953,0.0001449065,114,80,52.6,83,48,7.6,30,23,30,121,11.6,0,6.1,9,64,84
5063,"INDEPENDENCE","AR","72503",0.774882365173002,2818,"Batesville",35.734617,-91.534303,-6,1,0.768987697984303,FALSE,0,0,1,0,10758,22,5,4.4,9.1,23,30,33,9,37,415,59,20,0.0008718396,0.0003455425,96,80,59.9,90,47.3,8.8,28,23,35,586,12.4,0,5.4,8,50,94
5067,"JACKSON","AR","72112",1.29234528021127,588,"Newport",35.586065,-91.24695,-6,1,1.26926752238019,FALSE,0,0,1,0,9817,NA,5.2,3.5,10.8,21,32,37,3,35,533,78,23,0.000445236,0.0002002804,142,77,52.7,86,37.9,10.6,35,23,47,583,12.6,0,11.1,9,31,151
5069,"JEFFERSON","AR","71603",0.967585737913433,2566,"Pine Bluff",34.189398,-92.04495,-6,1,0.948020474597521,FALSE,0,0,1,0,10829,17,3.3,4.1,12.4,24,38,35,15,20,1285,70,18,0.0007763975,0.0003138732,67,82,67.8,76,49.5,10.6,36,28,58,1087,12.1,11,2.6,7,63,563
5071,"JOHNSON","AR","72830",0.353131392966911,352,"Clarksville",35.490105,-93.4851,-6,1,0.358594568647378,FALSE,0,0,1,0,8814,23,4.5,3.4,7.1,26,35,31,13,23,337,66,24,0.0007037298,0.0002678811,75,85,54.9,85,39.1,7.2,30,20,31,197,11.4,0,7.8,4,59,28
5093,"MISSISSIPPI","AR","72315",0.691922667915919,192,"Blytheville",35.925991,-89.91767,-6,1,0.66952195896439,FALSE,0,0,1,0,13682,26,5.5,4.6,11.6,29,39,43,7,26,1102,89,18,0.0003885004,0.000254842,106,72,47.1,75,45.8,11.1,36,28,53,890,13.3,9,4.3,7,57,218
5103,"OUACHITA","AR","71701",0.501914725403035,353,"Camden",33.578096,-92.81368,-6,1,0.506508638065498,FALSE,0,0,1,0,14039,23,5.2,6.3,11.6,27,37,36,13,31,865,81,19,0.0004977601,0.0002643405,71,86,66.9,85,49.6,9.4,38,NA,44,371,11.6,53,11.5,15,50,226
5107,"PHILLIPS","AR","72342",1.03060767727303,439,"Helena",34.485028,-90.64636,-6,1,1.02339257368643,FALSE,0,0,1,0,14286,20,4.1,5.4,13.5,21,39,39,12,34,1066,94,17,0.0003231018,0.0003650968,127,70,45.9,76,49,11.4,51,28,67,1584,12.4,17,4.6,24,50,375
5113,"POLK","AR","71953",0.46936750623822,310,"Mena",34.588479,-94.21567,-6,1,0.444576565316551,FALSE,0,1,0,0,11004,23,4.5,4.4,8.1,28,38,32,11,32,276,68,26,0.0005324814,0.0002882675,73,75,58.1,92,50.9,8.3,35,28,40,260,11.1,24,4.8,19,38,79
5115,"POPE","AR","72801",0.952486008876867,1519,"Russellville",35.278429,-93.13682,-6,1,0.886196111630648,FALSE,0,0,1,0,8523,20,4.4,3.1,7.5,25,32,26,14,18,468,48,20,0.000630517,0.0003374958,88,83,58.5,85,53.6,7.6,30,22,31,266,11.6,0,8.1,6,65,84
5119,"PULASKI","AR","72117",0.61917852555966,3576,"North Little Rock",34.777238,-92.17913,-6,1,0.617724464298756,FALSE,0,0,1,0,9374,15,3.2,3.4,10.5,20,32,29,16,18,791,60,18,0.0010224949,0.0006361323,64,81,66.1,68,65.5,7.2,23,19,44,1104,11.9,9,11.2,10,51,472
5119,"PULASKI","AR","72211",0.636500932776344,3802,"Little Rock",34.749723,-92.41345,-6,1,0.649458007680569,FALSE,0,0,1,0,9374,15,3.2,3.4,10.5,20,32,29,16,18,791,60,18,0.0010224949,0.0006361323,64,81,66.1,68,65.5,7.2,23,19,44,1104,11.9,9,11.2,10,51,472
5119,"PULASKI","AR","72205",0.757110810124642,16118,"Little Rock",34.752391,-92.3355,-6,1,0.744860356095631,TRUE,0,0,1,0,9374,15,3.2,3.4,10.5,20,32,29,16,18,791,60,18,0.0010224949,0.0006361323,64,81,66.1,68,65.5,7.2,23,19,44,1104,11.9,9,11.2,10,51,472
5119,"PULASKI","AR","72076",0.519980964743333,295,"Jacksonville",34.879419,-92.12244,-6,1,0.515460110528022,FALSE,1,0,0,0,9374,15,3.2,3.4,10.5,20,32,29,16,18,791,60,18,0.0010224949,0.0006361323,64,81,66.1,68,65.5,7.2,23,19,44,1104,11.9,9,11.2,10,51,472
5119,"PULASKI","AR","72118",0.55819053980437,1227,"North Little Rock",34.813269,-92.30229,-6,1,0.466868476593402,FALSE,0,0.5,0.5,0,9374,15,3.2,3.4,10.5,20,32,29,16,18,791,60,18,0.0010224949,0.0006361323,64,81,66.1,68,65.5,7.2,23,19,44,1104,11.9,9,11.2,10,51,472
5119,"PULASKI","AR","72120",0.678115164967903,544,"Sherwood",34.855962,-92.21997,-6,1,0.684155808609134,FALSE,0,0,1,0,9374,15,3.2,3.4,10.5,20,32,29,16,18,791,60,18,0.0010224949,0.0006361323,64,81,66.1,68,65.5,7.2,23,19,44,1104,11.9,9,11.2,10,51,472
5121,"RANDOLPH","AR","72455",0.367031382251669,302,"Pocahontas",36.304912,-91.0141,-6,1,0.348503962885205,FALSE,0,0,1,0,10455,22,4.8,4.9,7.3,18,35,33,10,33,340,57,22,0.0006123699,0.0003821169,94,90,59.3,95,50.4,10.3,35,27,27,35,12.3,3,11.1,14,48,60
5125,"SALINE","AR","72015",0.596810125899874,1785,"Benton",34.564734,-92.59562,-6,1,0.608449070815025,FALSE,0,0,1,0,7307,18,4,4.3,8.3,24,31,26,11,17,211,39,16,0.0003995206,0.0002842524,60,83,69.8,85,59.3,6.5,15,19,28,272,11.8,5,8.4,6,55,51
5131,"SEBASTIAN","AR","72901",0.594632531133651,4450,"Fort Smith",35.373791,-94.41371,-6,1,0.61073833792155,FALSE,0,0,1,0,8897,19,4.4,4,8.3,22,30,34,12,16,446,61,24,0.0011454754,0.0006169031,63,80,66.3,78,52.7,8.3,31,20,32,632,11,20,10.3,5,52,189
5131,"SEBASTIAN","AR","72917",0.788783228432223,3346,"Fort Smith",35.191046,-94.23816,-6,1,0.785170442431098,FALSE,0,0,1,0,8897,19,4.4,4,8.3,22,30,34,12,16,446,61,24,0.0011454754,0.0006169031,63,80,66.3,78,52.7,8.3,31,20,32,632,11,20,10.3,5,52,189
5139,"UNION","AR","71731",1.06908331797475,1618,"El Dorado",33.198024,-92.52891,-6,1,1.05446557473594,FALSE,0,0,1,0,11763,23,4.9,4.2,10.2,28,31,28,12,27,790,71,18,0.0007949126,0.0004757374,66,83,54.6,83,54.1,9.7,32,21,42,572,11.7,10,4.8,11,48,368
5143,"WASHINGTON","AR","72764",1.12743393149919,3519,"Springdale",36.182407,-94.1082,-6,1,1.10830448345487,FALSE,0,0,1,0,7119,15,3.4,3,7.2,20,30,24,15,13,383,47,23,0.0007158196,0.0004725898,62,83,62.9,84,56.4,6,27,18,31,397,11,2,11.3,7,47,192
5143,"WASHINGTON","AR","72703",0.828126642859452,3624,"Fayetteville",36.107078,-94.11592,-6,1,0.831681520442796,FALSE,0,0,1,0,7119,15,3.4,3,7.2,20,30,24,15,13,383,47,23,0.0007158196,0.0004725898,62,83,62.9,84,56.4,6,27,18,31,397,11,2,11.3,7,47,192
5145,"WHITE","AR","72143",0.627611608001321,4404,"Searcy",35.239022,-91.73776,-6,1,0.622945787944806,FALSE,0,0,1,0,8633,18,3.8,3,8.3,18,31,28,12,26,352,50,20,0.0005173306,0.0003102699,90,83,56.7,86,52.4,8.8,24,16,29,255,12.3,0,6.5,6,53,85
5149,"YELL","AR","72833",0.20020936906001,755,"Danville",35.044021,-93.4195,-6,1,0.199490355480759,FALSE,0,0,1,0,10026,23,5.2,3.5,8.9,25,36,29,16,38,370,83,28,0.0005858231,0.0001331913,187,76,50.2,84,36.4,6.5,28,21,24,296,11.4,20,0,3,46,80
6001,"ALAMEDA","CA","94611",1.09222648373357,253,"Oakland",37.827126,-122.22289,-8,1,1.11012041616009,FALSE,0,0,1,0,5141,15,3,3.4,7.1,12,20,17,20,7,438,27,15,0.0009803922,0.0008203445,52,78,63.2,81,69.2,10.4,17,26,30,775,10.7,0,9.6,2,44,373
6001,"ALAMEDA","CA","94609",2.06603366035765,3513,"Oakland",37.834926,-122.264,-8,1,2.0558805542093,FALSE,0,0,1,0,5141,15,3,3.4,7.1,12,20,17,20,7,438,27,15,0.0009803922,0.0008203445,52,78,63.2,81,69.2,10.4,17,26,30,775,10.7,0,9.6,2,44,373
6001,"ALAMEDA","CA","94588",2.39603503342651,1383,"Pleasanton",37.68973,-121.89244,-8,1,2.36508335454763,FALSE,0,0,1,0,5141,15,3,3.4,7.1,12,20,17,20,7,438,27,15,0.0009803922,0.0008203445,52,78,63.2,81,69.2,10.4,17,26,30,775,10.7,0,9.6,2,44,373
6001,"ALAMEDA","CA","94545",2.60093108092323,1887,"Hayward",37.635582,-122.10418,-8,1,2.46463385918708,FALSE,0,0,1,0,5141,15,3,3.4,7.1,12,20,17,20,7,438,27,15,0.0009803922,0.0008203445,52,78,63.2,81,69.2,10.4,17,26,30,775,10.7,0,9.6,2,44,373
6001,"ALAMEDA","CA","94538",3.29516186629435,3444,"Fremont",37.527237,-121.9679,-8,1,3.2548245751647,FALSE,0.5,0,0.5,0,5141,15,3,3.4,7.1,12,20,17,20,7,438,27,15,0.0009803922,0.0008203445,52,78,63.2,81,69.2,10.4,17,26,30,775,10.7,0,9.6,2,44,373
6001,"ALAMEDA","CA","94705",2.11138952931404,2257,"Berkeley",37.856926,-122.25084,-8,1,2.08724276053222,FALSE,0,0,1,0,5141,15,3,3.4,7.1,12,20,17,20,7,438,27,15,0.0009803922,0.0008203445,52,78,63.2,81,69.2,10.4,17,26,30,775,10.7,0,9.6,2,44,373
6001,"ALAMEDA","CA","94501",1.34978298557822,717,"Alameda",37.769528,-122.25937,-8,1,1.33430854729094,FALSE,0,0,1,0,5141,15,3,3.4,7.1,12,20,17,20,7,438,27,15,0.0009803922,0.0008203445,52,78,63.2,81,69.2,10.4,17,26,30,775,10.7,0,9.6,2,44,373
6001,"ALAMEDA","CA","94602",1.12165279053409,432,"Oakland",37.799727,-122.21211,-8,1,1.12778754553983,FALSE,0,1,0,0,5141,15,3,3.4,7.1,12,20,17,20,7,438,27,15,0.0009803922,0.0008203445,52,78,63.2,81,69.2,10.4,17,26,30,775,10.7,0,9.6,2,44,373
6001,"ALAMEDA","CA","94546",1.67780775803648,3124,"Castro Valley",37.702063,-122.07934,-8,1,1.68781262309312,FALSE,0,0,1,0,5141,15,3,3.4,7.1,12,20,17,20,7,438,27,15,0.0009803922,0.0008203445,52,78,63.2,81,69.2,10.4,17,26,30,775,10.7,0,9.6,2,44,373
6005,"AMADOR","CA","95642",1.25307225248355,488,"Jackson",38.359772,-120.75324,-8,1,1.22758546724331,FALSE,0,0,1,0,7504,18,4.4,4.4,4.9,25,25,18,16,23,181,24,16,0.0005787037,0.0007751938,47,84,71.2,85,53.3,12.8,19,13,24,298,12,7,10.5,3,31,98
6007,"BUTTE","CA","95966",1.24284728507562,2888,"Oroville",39.491076,-121.49468,-8,1,1.20724226519079,FALSE,0,0,1,0,7944,15,4.3,4.2,5.8,19,25,17,19,18,371,28,19,0.0006684492,0.0006761325,67,79,64.5,85,65.6,13.6,28,19,36,383,11.4,0,9.1,7,54,105
6007,"BUTTE","CA","95926",1.51819142447769,4534,"Chico",39.745973,-121.84259,-8,1,1.51019730863729,FALSE,0,0,1,0,7944,15,4.3,4.2,5.8,19,25,17,19,18,371,28,19,0.0006684492,0.0006761325,67,79,64.5,85,65.6,13.6,28,19,36,383,11.4,0,9.1,7,54,105
6007,"BUTTE","CA","95969",2.66118588278446,1744,"Paradise",39.750422,-121.61026,-8,1,2.73649716949324,FALSE,0,0,1,0,7944,15,4.3,4.2,5.8,19,25,17,19,18,371,28,19,0.0006684492,0.0006761325,67,79,64.5,85,65.6,13.6,28,19,36,383,11.4,0,9.1,7,54,105
6011,"COLUSA","CA","95932",1.11027772554463,143,"Colusa",39.254875,-122.04572,-8,1,1.12713806253189,FALSE,0,0.5,0.5,0,5945,NA,2.7,2.4,5.3,NA,25,18,NA,18,149,51,24,0.0003260515,0.0003225806,69,86,63.6,83,44,20.4,20,NA,35,232,10.6,13,0,3,48,NA
6013,"CONTRA COSTA","CA","94520",2.99674460158717,2546,"Concord",37.986321,-122.03988,-8,1,3.02295542820722,FALSE,0,0,1,0,5257,14,3.3,3.6,6.7,13,24,18,19,8,373,24,14,0.0008928571,0.0007331378,51,81,68.4,83,67.8,10.4,15,21,26,424,10.7,0,11.1,3,47,201
6013,"CONTRA COSTA","CA","94806",2.12639624915633,1537,"San Pablo",37.972623,-122.33873,-8,1,2.07908629647964,FALSE,0,1,0,0,5257,14,3.3,3.6,6.7,13,24,18,19,8,373,24,14,0.0008928571,0.0007331378,51,81,68.4,83,67.8,10.4,15,21,26,424,10.7,0,11.1,3,47,201
6013,"CONTRA COSTA","CA","94596",1.04219793338062,117,"Walnut Creek",37.905924,-122.05858,-8,1,1.08501269536541,FALSE,0,1,0,0,5257,14,3.3,3.6,6.7,13,24,18,19,8,373,24,14,0.0008928571,0.0007331378,51,81,68.4,83,67.8,10.4,15,21,26,424,10.7,0,11.1,3,47,201
6013,"CONTRA COSTA","CA","94553",1.27571756094169,421,"Martinez",37.998912,-122.11501,-8,1,1.35310904148091,TRUE,0,0,1,0,5257,14,3.3,3.6,6.7,13,24,18,19,8,373,24,14,0.0008928571,0.0007331378,51,81,68.4,83,67.8,10.4,15,21,26,424,10.7,0,11.1,3,47,201
6013,"CONTRA COSTA","CA","94598",3.09506614575818,3692,"Walnut Creek",37.91878,-122.02618,-8,1,3.12898537443326,FALSE,0,0,1,0,5257,14,3.3,3.6,6.7,13,24,18,19,8,373,24,14,0.0008928571,0.0007331378,51,81,68.4,83,67.8,10.4,15,21,26,424,10.7,0,11.1,3,47,201
6013,"CONTRA COSTA","CA","94509",1.80058777199767,1909,"Antioch",37.991571,-121.80207,-8,1,1.74766779013841,FALSE,0,0,1,0,5257,14,3.3,3.6,6.7,13,24,18,19,8,373,24,14,0.0008928571,0.0007331378,51,81,68.4,83,67.8,10.4,15,21,26,424,10.7,0,11.1,3,47,201
6013,"CONTRA COSTA","CA","94583",2.5513997146285,806,"San Ramon",37.75735,-121.95213,-8,1,2.53401183151197,FALSE,0,0,1,0,5257,14,3.3,3.6,6.7,13,24,18,19,8,373,24,14,0.0008928571,0.0007331378,51,81,68.4,83,67.8,10.4,15,21,26,424,10.7,0,11.1,3,47,201
6013,"CONTRA COSTA","CA","94531",0.978941350575716,76,"Antioch",37.920852,-121.723919,-8,1,1.00221275435113,FALSE,0,0,1,0,5257,14,3.3,3.6,6.7,13,24,18,19,8,373,24,14,0.0008928571,0.0007331378,51,81,68.4,83,67.8,10.4,15,21,26,424,10.7,0,11.1,3,47,201
6015,"DEL NORTE","CA","95531",1.14327952840069,551,"Crescent City",41.782681,-124.16703,-8,1,1.15631548690316,FALSE,0,0,1,0,9671,NA,NA,NA,5.4,NA,27,18,9,24,178,54,16,0.0007336757,0.0006165228,51,79,61.9,85,45.9,13.4,34,NA,45,383,10.2,0,3.5,10,44,121
6017,"EL DORADO","CA","95667",2.29349650695135,1620,"Placerville",38.724682,-120.79533,-8,1,2.24908637093077,FALSE,0,0,1,0,5170,10,2.5,2.9,6.3,13,21,15,19,12,134,19,14,0.0007457122,0.0006839945,40,85,71.2,92,67.4,11.8,13,15,23,272,11.8,0,9.9,5,40,90
6017,"EL DORADO","CA","96158",1.393153753335,131,"South Lake Tahoe",38.898142,-119.998419,-8,1,1.40012016722501,FALSE,0,0,1,0,5170,10,2.5,2.9,6.3,13,21,15,19,12,134,19,14,0.0007457122,0.0006839945,40,85,71.2,92,67.4,11.8,13,15,23,272,11.8,0,9.9,5,40,90
6019,"FRESNO","CA","93715",1.19042996888377,4948,"Fresno",36.746375,-119.639658,-8,1,1.2192892486136,FALSE,0,0,1,0,7010,22,4,3.4,7.4,14,29,21,17,17,648,57,22,0.0006108735,0.0005112474,61,82,62.9,80,49.8,16.5,35,28,37,509,13.2,22,5,5,53,177
6019,"FRESNO","CA","93710",1.14972164441235,8349,"Fresno",36.825582,-119.76358,-8,1,1.17762563035823,FALSE,0,0,1,0,7010,22,4,3.4,7.4,14,29,21,17,17,648,57,22,0.0006108735,0.0005112474,61,82,62.9,80,49.8,16.5,35,28,37,509,13.2,22,5,5,53,177
6019,"FRESNO","CA","93654",1.06633327624671,89,"Reedley",36.608675,-119.43761,-8,1,1.05475044103328,FALSE,0,1,0,0,7010,22,4,3.4,7.4,14,29,21,17,17,648,57,22,0.0006108735,0.0005112474,61,82,62.9,80,49.8,16.5,35,28,37,509,13.2,22,5,5,53,177
6019,"FRESNO","CA","93210",0.527834339131346,12,"Coalinga",36.194736,-120.30865,-8,1,0.527834339131346,FALSE,0,0,1,0,7010,22,4,3.4,7.4,14,29,21,17,17,648,57,22,0.0006108735,0.0005112474,61,82,62.9,80,49.8,16.5,35,28,37,509,13.2,22,5,5,53,177
6019,"FRESNO","CA","93720",0.799091403744383,503,"Fresno",36.865587,-119.75917,-8,1,0.853761925361942,FALSE,0,0,1,0,7010,22,4,3.4,7.4,14,29,21,17,17,648,57,22,0.0006108735,0.0005112474,61,82,62.9,80,49.8,16.5,35,28,37,509,13.2,22,5,5,53,177
6019,"FRESNO","CA","93611",1.1689088427327,788,"Clovis",36.840057,-119.66107,-8,1,1.16639469840872,FALSE,0,0,1,0,7010,22,4,3.4,7.4,14,29,21,17,17,648,57,22,0.0006108735,0.0005112474,61,82,62.9,80,49.8,16.5,35,28,37,509,13.2,22,5,5,53,177
6023,"HUMBOLDT","CA","95501",1.4204856975047,1409,"Eureka",40.793739,-124.16102,-8,1,1.41145254535998,FALSE,0,0,1,0,8293,13,4.3,4.4,6,20,26,19,21,17,267,28,20,0.0007496252,0.0006082725,40,84,70.3,86,64.8,11.3,26,18,40,390,11.1,1,7.4,7,40,127
6023,"HUMBOLDT","CA","95521",0.952061211588537,234,"Arcata",40.867469,-124.07519,-8,1,0.956561636006832,FALSE,0,0,1,0,8293,13,4.3,4.4,6,20,26,19,21,17,267,28,20,0.0007496252,0.0006082725,40,84,70.3,86,64.8,11.3,26,18,40,390,11.1,1,7.4,7,40,127
6025,"IMPERIAL","CA","92227",1.17863104350815,1182,"Brawley",32.98975,-115.50475,-8,1,1.16168810039269,FALSE,0,0,1,0,5672,32,4.8,3.7,6.2,11,25,23,15,16,368,64,23,0.0002398657,0.0003013864,64,84,53.5,85,49.5,29.7,33,24,37,334,11.5,29,4,8,50,145
6025,"IMPERIAL","CA","92243",1.4025710730767,1402,"El Centro",32.783359,-115.57746,-8,1,1.42538782015412,FALSE,0,0,1,0,5672,32,4.8,3.7,6.2,11,25,23,15,16,368,64,23,0.0002398657,0.0003013864,64,84,53.5,85,49.5,29.7,33,24,37,334,11.5,29,4,8,50,145
6029,"KERN","CA","93308",1.26994885147981,2225,"Bakersfield",35.487491,-119.00896,-8,1,1.33818760172626,FALSE,0,1,0,0,7631,24,4.4,4.1,7.1,17,29,24,16,17,650,65,23,0.0004948046,0.0004071661,78,80,58,79,43.1,14.9,35,27,36,586,11.2,10,4.6,5,58,258
6029,"KERN","CA","93306",1.87234458958506,178,"Bakersfield",35.396411,-118.92268,-8,1,1.87234458958506,FALSE,0,0,1,0,7631,24,4.4,4.1,7.1,17,29,24,16,17,650,65,23,0.0004948046,0.0004071661,78,80,58,79,43.1,14.9,35,27,36,586,11.2,10,4.6,5,58,258
6029,"KERN","CA","93301",1.55877579623215,6892,"Bakersfield",35.381408,-119.01935,-8,1,1.5301101816348,FALSE,0,0,1,0,7631,24,4.4,4.1,7.1,17,29,24,16,17,650,65,23,0.0004948046,0.0004071661,78,80,58,79,43.1,14.9,35,27,36,586,11.2,10,4.6,5,58,258
6029,"KERN","CA","93215",1.10237185994821,380,"Delano",35.774967,-119.23371,-8,1,1.09373319951606,FALSE,0,0,1,0,7631,24,4.4,4.1,7.1,17,29,24,16,17,650,65,23,0.0004948046,0.0004071661,78,80,58,79,43.1,14.9,35,27,36,586,11.2,10,4.6,5,58,258
6029,"KERN","CA","93555",1.13789431070714,381,"Ridgecrest",35.599177,-117.68065,-8,1,1.14987392349152,FALSE,0,0,1,0,7631,24,4.4,4.1,7.1,17,29,24,16,17,650,65,23,0.0004948046,0.0004071661,78,80,58,79,43.1,14.9,35,27,36,586,11.2,10,4.6,5,58,258
6031,"KINGS","CA","93230",1.1080165352231,3055,"Hanford",36.327063,-119.6451,-8,1,1.11973589363461,FALSE,0,1,0,0,6372,27,5.1,4.1,6.5,15,28,22,16,18,324,67,20,0.0003460208,0.0004692633,79,76,55.5,77,46.7,16.1,30,22,30,405,11.6,22,6.5,6,64,154
6037,"LOS ANGELES","CA","90023",1.08499907840364,2163,"Los Angeles",34.023039,-118.20231,-8,1,1.10693528092147,FALSE,0,0,1,0,5464,23,3.8,3.7,7.3,13,22,19,16,8,484,38,26,0.0007072136,0.0007132668,60,79,56.1,75,57.3,12.3,26,29,35,558,10.2,7,7.3,1,50,498
6037,"LOS ANGELES","CA","91342",1.17661147847246,238,"Sylmar",34.307877,-118.42904,-8,1,1.17913349312258,FALSE,0,0,1,0,5464,23,3.8,3.7,7.3,13,22,19,16,8,484,38,26,0.0007072136,0.0007132668,60,79,56.1,75,57.3,12.3,26,29,35,558,10.2,7,7.3,1,50,498
6037,"LOS ANGELES","CA","91406",1.37725064132493,2000,"Van Nuys",34.201491,-118.49376,-8,1,1.34434574664673,FALSE,0,0.666666666666667,0.333333333333333,0,5464,23,3.8,3.7,7.3,13,22,19,16,8,484,38,26,0.0007072136,0.0007132668,60,79,56.1,75,57.3,12.3,26,29,35,558,10.2,7,7.3,1,50,498
6037,"LOS ANGELES","CA","90048",3.01190771331763,10177,"Los Angeles",34.073759,-118.37376,-8,1,3.09200357748298,TRUE,0,0,1,0,5464,23,3.8,3.7,7.3,13,22,19,16,8,484,38,26,0.0007072136,0.0007132668,60,79,56.1,75,57.3,12.3,26,29,35,558,10.2,7,7.3,1,50,498
6037,"LOS ANGELES","CA","90262",1.42641047629355,1818,"Lynwood",33.924642,-118.20186,-8,1,1.51539036602658,FALSE,0,1,0,0,5464,23,3.8,3.7,7.3,13,22,19,16,8,484,38,26,0.0007072136,0.0007132668,60,79,56.1,75,57.3,12.3,26,29,35,558,10.2,7,7.3,1,50,498
6037,"LOS ANGELES","CA","90036",2.74041577316828,2746,"Los Angeles",34.07036,-118.34926,-8,1,2.67320356655165,FALSE,0,0,1,0,5464,23,3.8,3.7,7.3,13,22,19,16,8,484,38,26,0.0007072136,0.0007132668,60,79,56.1,75,57.3,12.3,26,29,35,558,10.2,7,7.3,1,50,498
6037,"LOS ANGELES","CA","90503",2.00736362465801,3740,"Torrance",33.840264,-118.35587,-8,1,1.98314463050132,FALSE,0,0,1,0,5464,23,3.8,3.7,7.3,13,22,19,16,8,484,38,26,0.0007072136,0.0007132668,60,79,56.1,75,57.3,12.3,26,29,35,558,10.2,7,7.3,1,50,498
6037,"LOS ANGELES","CA","90231",1.80644249617298,2268,"Culver City",33.786594,-118.298662,-8,1,1.90752674594085,FALSE,0,0,1,0,5464,23,3.8,3.7,7.3,13,22,19,16,8,484,38,26,0.0007072136,0.0007132668,60,79,56.1,75,57.3,12.3,26,29,35,558,10.2,7,7.3,1,50,498
6037,"LOS ANGELES","CA","90017",1.82788106691577,3027,"Los Angeles",34.052561,-118.26434,-8,1,1.84853910201685,FALSE,1,0,0,0,5464,23,3.8,3.7,7.3,13,22,19,16,8,484,38,26,0.0007072136,0.0007132668,60,79,56.1,75,57.3,12.3,26,29,35,558,10.2,7,7.3,1,50,498
6037,"LOS ANGELES","CA","90028",1.25148325055666,4340,"Los Angeles",34.098859,-118.32745,-8,1,1.45356258039552,FALSE,0,1,0,0,5464,23,3.8,3.7,7.3,13,22,19,16,8,484,38,26,0.0007072136,0.0007132668,60,79,56.1,75,57.3,12.3,26,29,35,558,10.2,7,7.3,1,50,498
6037,"LOS ANGELES","CA","90706",1.32138952288383,521,"Bellflower",33.888165,-118.1276,-8,1,1.43529075452381,FALSE,0,0,1,0,5464,23,3.8,3.7,7.3,13,22,19,16,8,484,38,26,0.0007072136,0.0007132668,60,79,56.1,75,57.3,12.3,26,29,35,558,10.2,7,7.3,1,50,498
6037,"LOS ANGELES","CA","90247",1.08034205615522,1036,"Gardena",33.891265,-118.2975,-8,1,1.08459679841481,FALSE,0,0,1,0,5464,23,3.8,3.7,7.3,13,22,19,16,8,484,38,26,0.0007072136,0.0007132668,60,79,56.1,75,57.3,12.3,26,29,35,558,10.2,7,7.3,1,50,498
6037,"LOS ANGELES","CA","90640",0.74008525853452,1496,"Montebello",34.014212,-118.11358,-8,1,0.73005153200726,FALSE,0,0,1,0,5464,23,3.8,3.7,7.3,13,22,19,16,8,484,38,26,0.0007072136,0.0007132668,60,79,56.1,75,57.3,12.3,26,29,35,558,10.2,7,7.3,1,50,498
6037,"LOS ANGELES","CA","90716",1.24026832971812,878,"Hawaiian Gardens",33.828565,-118.07364,-8,1,1.22345427879545,FALSE,0,0,1,0,5464,23,3.8,3.7,7.3,13,22,19,16,8,484,38,26,0.0007072136,0.0007132668,60,79,56.1,75,57.3,12.3,26,29,35,558,10.2,7,7.3,1,50,498
6037,"LOS ANGELES","CA","91346",2.88969439509274,2627,"Mission Hills",33.786594,-118.298662,-8,1,2.75758954344122,FALSE,0,0,1,0,5464,23,3.8,3.7,7.3,13,22,19,16,8,484,38,26,0.0007072136,0.0007132668,60,79,56.1,75,57.3,12.3,26,29,35,558,10.2,7,7.3,1,50,498
6037,"LOS ANGELES","CA","90242",0.662037761043158,127,"Downey",33.92018,-118.14291,-8,1,0.699441868892184,FALSE,0,0,1,0,5464,23,3.8,3.7,7.3,13,22,19,16,8,484,38,26,0.0007072136,0.0007132668,60,79,56.1,75,57.3,12.3,26,29,35,558,10.2,7,7.3,1,50,498
6037,"LOS ANGELES","CA","90095",1.86444499236547,2234,"Los Angeles",33.786594,-118.298662,-8,1,1.86302459980077,TRUE,0,0,1,0,5464,23,3.8,3.7,7.3,13,22,19,16,8,484,38,26,0.0007072136,0.0007132668,60,79,56.1,75,57.3,12.3,26,29,35,558,10.2,7,7.3,1,50,498
6037,"LOS ANGELES","CA","90813",1.66663632003318,1266,"Long Beach",33.781011,-118.19197,-8,1,1.62421831177365,FALSE,0,0,1,0,5464,23,3.8,3.7,7.3,13,22,19,16,8,484,38,26,0.0007072136,0.0007132668,60,79,56.1,75,57.3,12.3,26,29,35,558,10.2,7,7.3,1,50,498
6037,"LOS ANGELES","CA","90241",2.05708324874363,2061,"Downey",33.942289,-118.12901,-8,1,2.01691831039347,FALSE,1,0,0,0,5464,23,3.8,3.7,7.3,13,22,19,16,8,484,38,26,0.0007072136,0.0007132668,60,79,56.1,75,57.3,12.3,26,29,35,558,10.2,7,7.3,1,50,498
6037,"LOS ANGELES","CA","91109",1.72673995875863,5428,"Pasadena",33.786594,-118.298662,-8,1,1.71103393633642,FALSE,0,0,1,0,5464,23,3.8,3.7,7.3,13,22,19,16,8,484,38,26,0.0007072136,0.0007132668,60,79,56.1,75,57.3,12.3,26,29,35,558,10.2,7,7.3,1,50,498
6037,"LOS ANGELES","CA","91204",1.80680143004183,2466,"Glendale",34.135259,-118.25948,-8,1,1.76694188576301,FALSE,0.5,0,0.5,0,5464,23,3.8,3.7,7.3,13,22,19,16,8,484,38,26,0.0007072136,0.0007132668,60,79,56.1,75,57.3,12.3,26,29,35,558,10.2,7,7.3,1,50,498
6037,"LOS ANGELES","CA","90026",1.44537615354781,1350,"Los Angeles",34.07851,-118.26596,-8,1,1.22504587590629,FALSE,0,0,1,0,5464,23,3.8,3.7,7.3,13,22,19,16,8,484,38,26,0.0007072136,0.0007132668,60,79,56.1,75,57.3,12.3,26,29,35,558,10.2,7,7.3,1,50,498
6037,"LOS ANGELES","CA","91209",1.17246743953246,1103,"Glendale",33.786594,-118.298662,-8,1,1.15366372831241,FALSE,0,0,1,0,5464,23,3.8,3.7,7.3,13,22,19,16,8,484,38,26,0.0007072136,0.0007132668,60,79,56.1,75,57.3,12.3,26,29,35,558,10.2,7,7.3,1,50,498
6037,"LOS ANGELES","CA","91307",2.51067229058851,2290,"West Hills",34.197737,-118.64797,-8,1,2.45252685265895,FALSE,0,0,1,0,5464,23,3.8,3.7,7.3,13,22,19,16,8,484,38,26,0.0007072136,0.0007132668,60,79,56.1,75,57.3,12.3,26,29,35,558,10.2,7,7.3,1,50,498
6037,"LOS ANGELES","CA","91325",2.09928617533377,3088,"Northridge",34.235055,-118.51766,-8,1,2.06018469710527,FALSE,0,0,1,0,5464,23,3.8,3.7,7.3,13,22,19,16,8,484,38,26,0.0007072136,0.0007132668,60,79,56.1,75,57.3,12.3,26,29,35,558,10.2,7,7.3,1,50,498
6037,"LOS ANGELES","CA","90033",2.12256031329243,3575,"Los Angeles",34.050411,-118.21195,-8,1,2.2057956753265,TRUE,0,0,1,0,5464,23,3.8,3.7,7.3,13,22,19,16,8,484,38,26,0.0007072136,0.0007132668,60,79,56.1,75,57.3,12.3,26,29,35,558,10.2,7,7.3,1,50,498
6037,"LOS ANGELES","CA","90034",0.8332981924861,130,"Los Angeles",34.03056,-118.39804,-8,1,0.866786348041129,FALSE,0,0,1,0,5464,23,3.8,3.7,7.3,13,22,19,16,8,484,38,26,0.0007072136,0.0007132668,60,79,56.1,75,57.3,12.3,26,29,35,558,10.2,7,7.3,1,50,498
6037,"LOS ANGELES","CA","90018",1.44481213407544,871,"Los Angeles",34.029112,-118.3183,-8,1,1.76150179227461,FALSE,0,0,1,0,5464,23,3.8,3.7,7.3,13,22,19,16,8,484,38,26,0.0007072136,0.0007132668,60,79,56.1,75,57.3,12.3,26,29,35,558,10.2,7,7.3,1,50,498
6037,"LOS ANGELES","CA","91355",2.42038652921344,1780,"Valencia",34.406519,-118.56214,-8,1,2.40290037086941,FALSE,0,0,0,0,5464,23,3.8,3.7,7.3,13,22,19,16,8,484,38,26,0.0007072136,0.0007132668,60,79,56.1,75,57.3,12.3,26,29,35,558,10.2,7,7.3,1,50,498
6037,"LOS ANGELES","CA","90602",2.16622929329165,2746,"Whittier",33.967562,-118.03384,-8,1,2.12679690455355,FALSE,1,0,0,0,5464,23,3.8,3.7,7.3,13,22,19,16,8,484,38,26,0.0007072136,0.0007132668,60,79,56.1,75,57.3,12.3,26,29,35,558,10.2,7,7.3,1,50,498
6037,"LOS ANGELES","CA","90404",1.3690793572245,6602,"Santa Monica",34.026959,-118.47432,-8,1,1.4162756962709,FALSE,0,0,1,0,5464,23,3.8,3.7,7.3,13,22,19,16,8,484,38,26,0.0007072136,0.0007132668,60,79,56.1,75,57.3,12.3,26,29,35,558,10.2,7,7.3,1,50,498
6037,"LOS ANGELES","CA","90012",0.853499815806793,799,"Los Angeles",34.061611,-118.23944,-8,1,0.840166289556701,FALSE,0,0,1,0,5464,23,3.8,3.7,7.3,13,22,19,16,8,484,38,26,0.0007072136,0.0007132668,60,79,56.1,75,57.3,12.3,26,29,35,558,10.2,7,7.3,1,50,498
6037,"LOS ANGELES","CA","91402",0.695871423380294,2157,"Panorama City",34.223753,-118.44322,-8,1,0.759295536436357,FALSE,0,1,0,0,5464,23,3.8,3.7,7.3,13,22,19,16,8,484,38,26,0.0007072136,0.0007132668,60,79,56.1,75,57.3,12.3,26,29,35,558,10.2,7,7.3,1,50,498
6037,"LOS ANGELES","CA","91403",1.05752973876696,1366,"Sherman Oaks",34.152513,-118.46396,-8,1,0.98716998654415,FALSE,0,0,1,0,5464,23,3.8,3.7,7.3,13,22,19,16,8,484,38,26,0.0007072136,0.0007132668,60,79,56.1,75,57.3,12.3,26,29,35,558,10.2,7,7.3,1,50,498
6037,"LOS ANGELES","CA","91754",3.12854611430364,2411,"Monterey Park",34.048207,-118.14161,-8,1,2.99130842862229,FALSE,0,0,1,0,5464,23,3.8,3.7,7.3,13,22,19,16,8,484,38,26,0.0007072136,0.0007132668,60,79,56.1,75,57.3,12.3,26,29,35,558,10.2,7,7.3,1,50,498
6037,"LOS ANGELES","CA","91436",1.36672072207684,512,"Encino",34.155625,-118.48925,-8,1,1.34306723547639,FALSE,0,1,0,0,5464,23,3.8,3.7,7.3,13,22,19,16,8,484,38,26,0.0007072136,0.0007132668,60,79,56.1,75,57.3,12.3,26,29,35,558,10.2,7,7.3,1,50,498
6037,"LOS ANGELES","CA","91505",2.63728715929717,4398,"Burbank",34.166906,-118.34366,-8,1,2.57338038596006,FALSE,0.333333333333333,0.333333333333333,0.333333333333333,0,5464,23,3.8,3.7,7.3,13,22,19,16,8,484,38,26,0.0007072136,0.0007132668,60,79,56.1,75,57.3,12.3,26,29,35,558,10.2,7,7.3,1,50,498
6037,"LOS ANGELES","CA","91706",0.481070167060054,47,"Baldwin Park",34.087108,-117.96966,-8,1,0.478760589654981,FALSE,0,0,1,0,5464,23,3.8,3.7,7.3,13,22,19,16,8,484,38,26,0.0007072136,0.0007132668,60,79,56.1,75,57.3,12.3,26,29,35,558,10.2,7,7.3,1,50,498
6037,"LOS ANGELES","CA","90291",1.74525722043933,920,"Venice",33.992411,-118.46531,-8,1,1.73514942960885,FALSE,0,0,1,0,5464,23,3.8,3.7,7.3,13,22,19,16,8,484,38,26,0.0007072136,0.0007132668,60,79,56.1,75,57.3,12.3,26,29,35,558,10.2,7,7.3,1,50,498
6037,"LOS ANGELES","CA","90301",1.78944867095524,5010,"Inglewood",33.955913,-118.35868,-8,1,1.80647669282878,FALSE,0,0,1,0,5464,23,3.8,3.7,7.3,13,22,19,16,8,484,38,26,0.0007072136,0.0007132668,60,79,56.1,75,57.3,12.3,26,29,35,558,10.2,7,7.3,1,50,498
6037,"LOS ANGELES","CA","91733",1.75912760915055,296,"South El Monte",34.05051,-118.04834,-8,1,1.72562800253917,FALSE,0,0,1,0,5464,23,3.8,3.7,7.3,13,22,19,16,8,484,38,26,0.0007072136,0.0007132668,60,79,56.1,75,57.3,12.3,26,29,35,558,10.2,7,7.3,1,50,498
6037,"LOS ANGELES","CA","91740",1.21730720149711,1070,"Glendora",34.119245,-117.8548,-8,1,1.20281963046144,FALSE,1,0,0,0,5464,23,3.8,3.7,7.3,13,22,19,16,8,484,38,26,0.0007072136,0.0007132668,60,79,56.1,75,57.3,12.3,26,29,35,558,10.2,7,7.3,1,50,498
6037,"LOS ANGELES","CA","90806",1.4368224873428,5321,"Long Beach",33.801767,-118.1858,-8,1,1.57072182671021,FALSE,0,0,1,0,5464,23,3.8,3.7,7.3,13,22,19,16,8,484,38,26,0.0007072136,0.0007132668,60,79,56.1,75,57.3,12.3,26,29,35,558,10.2,7,7.3,1,50,498
6037,"LOS ANGELES","CA","91767",2.17537046663439,2162,"Pomona",34.080143,-117.73861,-8,1,2.10072717885785,FALSE,0,0,1,0,5464,23,3.8,3.7,7.3,13,22,19,16,8,484,38,26,0.0007072136,0.0007132668,60,79,56.1,75,57.3,12.3,26,29,35,558,10.2,7,7.3,1,50,498
6037,"LOS ANGELES","CA","91367",0.794728902031781,30,"Woodland Hills",34.176238,-118.61992,-8,1,0.794728902031781,FALSE,0,1,0,0,5464,23,3.8,3.7,7.3,13,22,19,16,8,484,38,26,0.0007072136,0.0007132668,60,79,56.1,75,57.3,12.3,26,29,35,558,10.2,7,7.3,1,50,498
6037,"LOS ANGELES","CA","91801",1.72920510859718,1057,"Alhambra",34.090409,-118.127,-8,1,1.68727486801543,FALSE,0,0,1,0,5464,23,3.8,3.7,7.3,13,22,19,16,8,484,38,26,0.0007072136,0.0007132668,60,79,56.1,75,57.3,12.3,26,29,35,558,10.2,7,7.3,1,50,498
6037,"LOS ANGELES","CA","91006",1.5449159504113,4162,"Arcadia",34.134057,-118.02662,-8,1,1.50016715883956,FALSE,0.5,0,0.5,0,5464,23,3.8,3.7,7.3,13,22,19,16,8,484,38,26,0.0007072136,0.0007132668,60,79,56.1,75,57.3,12.3,26,29,35,558,10.2,7,7.3,1,50,498
6037,"LOS ANGELES","CA","90255",1.45918508158713,404,"Huntington Park",33.978404,-118.21773,-8,1,1.45898137873673,FALSE,0,1,0,0,5464,23,3.8,3.7,7.3,13,22,19,16,8,484,38,26,0.0007072136,0.0007132668,60,79,56.1,75,57.3,12.3,26,29,35,558,10.2,7,7.3,1,50,498
6037,"LOS ANGELES","CA","91206",2.19081620231869,3910,"Glendale",34.156674,-118.22937,-8,1,2.15068514076499,FALSE,0,0,1,0,5464,23,3.8,3.7,7.3,13,22,19,16,8,484,38,26,0.0007072136,0.0007132668,60,79,56.1,75,57.3,12.3,26,29,35,558,10.2,7,7.3,1,50,498
6037,"LOS ANGELES","CA","91776",2.59588130432654,1729,"San Gabriel",34.089059,-118.0951,-8,1,2.47282093310814,FALSE,0,0,1,0,5464,23,3.8,3.7,7.3,13,22,19,16,8,484,38,26,0.0007072136,0.0007132668,60,79,56.1,75,57.3,12.3,26,29,35,558,10.2,7,7.3,1,50,498
6037,"LOS ANGELES","CA","91352",0.766359969373104,785,"Sun Valley",34.224089,-118.37563,-8,1,0.74494266192171,FALSE,0,1,0,0,5464,23,3.8,3.7,7.3,13,22,19,16,8,484,38,26,0.0007072136,0.0007132668,60,79,56.1,75,57.3,12.3,26,29,35,558,10.2,7,7.3,1,50,498
6037,"LOS ANGELES","CA","90509",1.84048477577583,4027,"Torrance",33.786594,-118.298662,-8,1,1.76689213318544,TRUE,0,0,1,0,5464,23,3.8,3.7,7.3,13,22,19,16,8,484,38,26,0.0007072136,0.0007132668,60,79,56.1,75,57.3,12.3,26,29,35,558,10.2,7,7.3,1,50,498
6037,"LOS ANGELES","CA","90712",2.10312761851249,1368,"Lakewood",33.851965,-118.1468,-8,1,2.05061196654367,FALSE,0,0,1,0,5464,23,3.8,3.7,7.3,13,22,19,16,8,484,38,26,0.0007072136,0.0007132668,60,79,56.1,75,57.3,12.3,26,29,35,558,10.2,7,7.3,1,50,498
6037,"LOS ANGELES","CA","91723",1.08696781824372,3979,"Covina",34.085809,-117.88694,-8,1,1.08624150604716,FALSE,1,0,0,0,5464,23,3.8,3.7,7.3,13,22,19,16,8,484,38,26,0.0007072136,0.0007132668,60,79,56.1,75,57.3,12.3,26,29,35,558,10.2,7,7.3,1,50,498
6037,"LOS ANGELES","CA","90057",1.79350790261342,2453,"Los Angeles",34.061911,-118.27687,-8,1,1.80564981096499,FALSE,0,0,1,0,5464,23,3.8,3.7,7.3,13,22,19,16,8,484,38,26,0.0007072136,0.0007132668,60,79,56.1,75,57.3,12.3,26,29,35,558,10.2,7,7.3,1,50,498
6037,"LOS ANGELES","CA","91790",0.91854486670852,22,"West Covina",34.068059,-117.93835,-8,1,0.91854486670852,FALSE,0,1,0,0,5464,23,3.8,3.7,7.3,13,22,19,16,8,484,38,26,0.0007072136,0.0007132668,60,79,56.1,75,57.3,12.3,26,29,35,558,10.2,7,7.3,1,50,498
6037,"LOS ANGELES","CA","90804",2.08403907175199,343,"Long Beach",33.783467,-118.15182,-8,1,2.14845872066966,FALSE,0,0,1,0,5464,23,3.8,3.7,7.3,13,22,19,16,8,484,38,26,0.0007072136,0.0007132668,60,79,56.1,75,57.3,12.3,26,29,35,558,10.2,7,7.3,1,50,498
6037,"LOS ANGELES","CA","93534",1.02689044808357,3671,"Lancaster",34.698696,-118.15015,-8,1,1.0416975585147,FALSE,0,0,1,0,5464,23,3.8,3.7,7.3,13,22,19,16,8,484,38,26,0.0007072136,0.0007132668,60,79,56.1,75,57.3,12.3,26,29,35,558,10.2,7,7.3,1,50,498
6037,"LOS ANGELES","CA","90015",1.24006315721858,760,"Los Angeles",34.038993,-118.26516,-8,1,1.22598241319811,FALSE,0,1,0,0,5464,23,3.8,3.7,7.3,13,22,19,16,8,484,38,26,0.0007072136,0.0007132668,60,79,56.1,75,57.3,12.3,26,29,35,558,10.2,7,7.3,1,50,498
6037,"LOS ANGELES","CA","90605",1.93634003697575,850,"Whittier",33.945413,-118.03362,-8,1,1.91355148395927,FALSE,0,0,1,0,5464,23,3.8,3.7,7.3,13,22,19,16,8,484,38,26,0.0007072136,0.0007132668,60,79,56.1,75,57.3,12.3,26,29,35,558,10.2,7,7.3,1,50,498
6037,"LOS ANGELES","CA","90027",0.961395233928132,95,"Los Angeles",34.111208,-118.28842,-8,1,0.971002244684344,TRUE,0,0,1,0,5464,23,3.8,3.7,7.3,13,22,19,16,8,484,38,26,0.0007072136,0.0007132668,60,79,56.1,75,57.3,12.3,26,29,35,558,10.2,7,7.3,1,50,498
6037,"LOS ANGELES","CA","91356",2.40667708760523,3962,"Tarzana",34.164255,-118.54472,-8,1,2.41277653632573,FALSE,0,0,0,0,5464,23,3.8,3.7,7.3,13,22,19,16,8,484,38,26,0.0007072136,0.0007132668,60,79,56.1,75,57.3,12.3,26,29,35,558,10.2,7,7.3,1,50,498
6037,"LOS ANGELES","CA","93552",1.58737320718479,1511,"Palmdale",34.561207,-118.0375,-8,1,1.57409149390226,FALSE,0,1,0,0,5464,23,3.8,3.7,7.3,13,22,19,16,8,484,38,26,0.0007072136,0.0007132668,60,79,56.1,75,57.3,12.3,26,29,35,558,10.2,7,7.3,1,50,498
6037,"LOS ANGELES","CA","90004",1.40636873668373,1137,"Los Angeles",34.07711,-118.30755,-8,1,1.37826913777234,FALSE,0,0,1,0,5464,23,3.8,3.7,7.3,13,22,19,16,8,484,38,26,0.0007072136,0.0007132668,60,79,56.1,75,57.3,12.3,26,29,35,558,10.2,7,7.3,1,50,498
6037,"LOS ANGELES","CA","91773",1.50353198399307,617,"San Dimas",34.103341,-117.81814,-8,1,1.47399410908149,FALSE,0,0,1,0,5464,23,3.8,3.7,7.3,13,22,19,16,8,484,38,26,0.0007072136,0.0007132668,60,79,56.1,75,57.3,12.3,26,29,35,558,10.2,7,7.3,1,50,498
6037,"LOS ANGELES","CA","90650",0.997342716290412,388,"Norwalk",33.906914,-118.08339,-8,1,0.964760935019771,FALSE,0,0,1,0,5464,23,3.8,3.7,7.3,13,22,19,16,8,484,38,26,0.0007072136,0.0007132668,60,79,56.1,75,57.3,12.3,26,29,35,558,10.2,7,7.3,1,50,498
6037,"LOS ANGELES","CA","90710",0.686804001475503,120,"Harbor City",33.797317,-118.30065,-8,1,0.686108368667959,FALSE,0,0,1,0,5464,23,3.8,3.7,7.3,13,22,19,16,8,484,38,26,0.0007072136,0.0007132668,60,79,56.1,75,57.3,12.3,26,29,35,558,10.2,7,7.3,1,50,498
6037,"LOS ANGELES","CA","90732",1.90701080422373,760,"San Pedro",33.736718,-118.31123,-8,1,1.84601071453453,FALSE,0,0,1,0,5464,23,3.8,3.7,7.3,13,22,19,16,8,484,38,26,0.0007072136,0.0007132668,60,79,56.1,75,57.3,12.3,26,29,35,558,10.2,7,7.3,1,50,498
6039,"MADERA","CA","93637",0.912737254282018,768,"Madera",36.914819,-120.15817,-8,1,0.923572157608258,FALSE,0,1,0,0,6694,30,4,3.8,6.3,13,30,20,15,23,457,64,23,0.0004555809,0.0003685957,64,83,62.3,83,40.3,15.3,34,27,31,462,13.8,16,5.9,8,59,141
6041,"MARIN","CA","94903",0.754503219108041,44,"San Rafael",38.019022,-122.54589,-8,1,0.772737030216379,FALSE,0,0,1,0,3782,9,3.3,2.7,6.3,10,15,13,25,5,235,14,12,0.0014044944,0.0009587728,35,80,69.5,94,73.1,7.4,11,17,24,213,9.9,1,22.9,2,34,418
6041,"MARIN","CA","94904",2.45631773199738,2648,"Greenbrae",37.950069,-122.54284,-8,1,2.43906436540548,FALSE,0,0,1,0,3782,9,3.3,2.7,6.3,10,15,13,25,5,235,14,12,0.0014044944,0.0009587728,35,80,69.5,94,73.1,7.4,11,17,24,213,9.9,1,22.9,2,34,418
6041,"MARIN","CA","94945",1.70708095201239,403,"Novato",38.117065,-122.56316,-8,1,1.67088328930836,FALSE,0,0,1,0,3782,9,3.3,2.7,6.3,10,15,13,25,5,235,14,12,0.0014044944,0.0009587728,35,80,69.5,94,73.1,7.4,11,17,24,213,9.9,1,22.9,2,34,418
6045,"MENDOCINO","CA","95482",0.875567337917887,851,"Ukiah",39.154946,-123.20088,-8,1,0.896013934357357,FALSE,0,0,1,0,7975,17,3.9,3.4,6.3,18,23,18,25,18,273,39,22,0.0009680542,0.0006345178,41,83,60.3,81,52.4,10.9,31,25,38,604,10.2,1,17.1,7,31,143
6047,"MERCED","CA","95340",1.61738186848037,2892,"Merced",37.294648,-120.47474,-8,1,1.60889160118903,FALSE,0,0,1,0,6726,23,4.4,4.2,6.4,14,32,20,13,18,401,52,22,0.000428449,0.0003937008,62,82,62.8,87,42.4,18.3,36,28,33,616,12.3,5,6.6,6,60,71
6047,"MERCED","CA","93635",1.78071952800808,161,"Los Banos",37.048385,-120.86983,-8,1,1.81918508688247,FALSE,0,0,1,0,6726,23,4.4,4.2,6.4,14,32,20,13,18,401,52,22,0.000428449,0.0003937008,62,82,62.8,87,42.4,18.3,36,28,33,616,12.3,5,6.6,6,60,71
6053,"MONTEREY","CA","93906",2.52864009184861,345,"Salinas",36.709717,-121.63997,-8,1,2.82411376733424,FALSE,0,0,1,0,5216,22,3.5,4.2,5.9,13,22,16,15,11,405,55,24,0.0006269592,0.0005540166,44,82,66.9,75,44.6,12.4,25,27,32,499,10.1,1,5.8,3,40,175
6053,"MONTEREY","CA","93901",1.58976621450077,2906,"Salinas",36.665879,-121.65497,-8,1,1.54691410917324,FALSE,0,0,1,0,5216,22,3.5,4.2,5.9,13,22,16,15,11,405,55,24,0.0006269592,0.0005540166,44,82,66.9,75,44.6,12.4,25,27,32,499,10.1,1,5.8,3,40,175
6053,"MONTEREY","CA","93940",1.74775404427759,3228,"Monterey",36.586193,-121.88667,-8,1,1.74331977308677,FALSE,0,0,1,0,5216,22,3.5,4.2,5.9,13,22,16,15,11,405,55,24,0.0006269592,0.0005540166,44,82,66.9,75,44.6,12.4,25,27,32,499,10.1,1,5.8,3,40,175
6053,"MONTEREY","CA","93930",1.80150913271342,48,"King City",36.21106,-121.05986,-8,1,1.78709559326421,FALSE,0,0,1,0,5216,22,3.5,4.2,5.9,13,22,16,15,11,405,55,24,0.0006269592,0.0005540166,44,82,66.9,75,44.6,12.4,25,27,32,499,10.1,1,5.8,3,40,175
6055,"NAPA","CA","94574",1.99160137473071,1765,"Saint Helena",38.511241,-122.45695,-8,1,1.90214645027899,FALSE,0,0,1,0,5309,17,4,4.4,6.1,9,22,16,23,12,196,27,19,0.0008410429,0.0006702413,49,82,66.5,86,56.2,9,17,23,26,511,10.3,1,13.2,3,37,164
6055,"NAPA","CA","94558",1.9667136157385,1998,"Napa",38.337243,-122.30027,-8,1,1.99827137805658,FALSE,0,0,1,0,5309,17,4,4.4,6.1,9,22,16,23,12,196,27,19,0.0008410429,0.0006702413,49,82,66.5,86,56.2,9,17,23,26,511,10.3,1,13.2,3,37,164
6057,"NEVADA","CA","95945",1.27621977174137,1859,"Grass Valley",39.202725,-121.02076,-8,1,1.27215228884797,FALSE,0,0,1,0,5604,11,2.8,3.1,5.9,14,21,14,19,15,150,18,18,0.000739645,0.0007407407,41,84,72.6,90,72,10.6,17,15,28,294,11.6,2,21.3,5,34,71
6059,"ORANGE","CA","90033",2.12256031329243,3575,"Los Angeles",34.050411,-118.21195,-8,1,2.2057956753265,TRUE,0,0,1,0,4396,15,3.1,3.3,6.4,12,21,16,17,7,282,28,20,0.0009191176,0.0009276438,45,83,65.3,90,64.5,8.7,18,23,25,243,11,0,9.6,1,51,246
6059,"ORANGE","CA","92704",1.6624623449138,136,"Santa Ana",33.724167,-117.90623,-8,1,1.64545338761375,FALSE,0,0.5,0.5,0,4396,15,3.1,3.3,6.4,12,21,16,17,7,282,28,20,0.0009191176,0.0009276438,45,83,65.3,90,64.5,8.7,18,23,25,243,11,0,9.6,1,51,246
6059,"ORANGE","CA","92663",1.06744455769121,4450,"Newport Beach",33.619221,-117.93087,-8,1,1.07233322007247,FALSE,0,0,1,0,4396,15,3.1,3.3,6.4,12,21,16,17,7,282,28,20,0.0009191176,0.0009276438,45,83,65.3,90,64.5,8.7,18,23,25,243,11,0,9.6,1,51,246
6059,"ORANGE","CA","92691",1.69407985525816,3871,"Mission Viejo",33.611272,-117.66681,-8,1,1.67637400270208,FALSE,0,0,1,0,4396,15,3.1,3.3,6.4,12,21,16,17,7,282,28,20,0.0009191176,0.0009276438,45,83,65.3,90,64.5,8.7,18,23,25,243,11,0,9.6,1,51,246
6059,"ORANGE","CA","92801",1.90567179827793,2078,"Anaheim",33.844814,-117.95381,-8,1,1.89626431049345,FALSE,0,0,1,0,4396,15,3.1,3.3,6.4,12,21,16,17,7,282,28,20,0.0009191176,0.0009276438,45,83,65.3,90,64.5,8.7,18,23,25,243,11,0,9.6,1,51,246
6059,"ORANGE","CA","90720",2.37959591411244,1772,"Los Alamitos",33.794028,-118.07218,-8,1,2.31930364557711,FALSE,0,0,0,0,4396,15,3.1,3.3,6.4,12,21,16,17,7,282,28,20,0.0009191176,0.0009276438,45,83,65.3,90,64.5,8.7,18,23,25,243,11,0,9.6,1,51,246
6059,"ORANGE","CA","92804",1.25645183111307,1841,"Anaheim",33.818165,-117.97304,-8,1,1.3142582868838,FALSE,0,1,0,0,4396,15,3.1,3.3,6.4,12,21,16,17,7,282,28,20,0.0009191176,0.0009276438,45,83,65.3,90,64.5,8.7,18,23,25,243,11,0,9.6,1,51,246
6059,"ORANGE","CA","90623",1.14524486132015,919,"La Palma",33.849327,-118.04395,-8,1,1.14693276972699,FALSE,0,0,1,0,4396,15,3.1,3.3,6.4,12,21,16,17,7,282,28,20,0.0009191176,0.0009276438,45,83,65.3,90,64.5,8.7,18,23,25,243,11,0,9.6,1,51,246
6059,"ORANGE","CA","92647",1.12395436463154,799,"Huntington Beach",33.725167,-118.00509,-8,1,1.03950102188904,FALSE,0,0,1,0,4396,15,3.1,3.3,6.4,12,21,16,17,7,282,28,20,0.0009191176,0.0009276438,45,83,65.3,90,64.5,8.7,18,23,25,243,11,0,9.6,1,51,246
6059,"ORANGE","CA","92626",1.01155001078782,40,"Costa Mesa",33.677224,-117.90863,-8,1,1.02790417441011,FALSE,0,0.5,0,0,4396,15,3.1,3.3,6.4,12,21,16,17,7,282,28,20,0.0009191176,0.0009276438,45,83,65.3,90,64.5,8.7,18,23,25,243,11,0,9.6,1,51,246
6059,"ORANGE","CA","92705",1.64011834260473,384,"Santa Ana",33.762117,-117.81828,-8,1,1.64463782737839,FALSE,0,0,1,0,4396,15,3.1,3.3,6.4,12,21,16,17,7,282,28,20,0.0009191176,0.0009276438,45,83,65.3,90,64.5,8.7,18,23,25,243,11,0,9.6,1,51,246
6059,"ORANGE","CA","92835",1.62424672849969,2973,"Fullerton",33.903164,-117.91224,-8,1,1.66481298481818,FALSE,0,0,1,0,4396,15,3.1,3.3,6.4,12,21,16,17,7,282,28,20,0.0009191176,0.0009276438,45,83,65.3,90,64.5,8.7,18,23,25,243,11,0,9.6,1,51,246
6059,"ORANGE","CA","92807",0.796584470817411,97,"Anaheim",33.850515,-117.79113,-8,1,0.792122475096564,FALSE,0,0,1,0,4396,15,3.1,3.3,6.4,12,21,16,17,7,282,28,20,0.0009191176,0.0009276438,45,83,65.3,90,64.5,8.7,18,23,25,243,11,0,9.6,1,51,246
6059,"ORANGE","CA","90242",0.662037761043158,127,"Downey",33.92018,-118.14291,-8,1,0.699441868892184,FALSE,0,0,1,0,4396,15,3.1,3.3,6.4,12,21,16,17,7,282,28,20,0.0009191176,0.0009276438,45,83,65.3,90,64.5,8.7,18,23,25,243,11,0,9.6,1,51,246
6059,"ORANGE","CA","92870",1.7293596057539,440,"Placentia",33.883314,-117.85446,-8,1,1.7902459941201,FALSE,0,0,1,0,4396,15,3.1,3.3,6.4,12,21,16,17,7,282,28,20,0.0009191176,0.0009276438,45,83,65.3,90,64.5,8.7,18,23,25,243,11,0,9.6,1,51,246
6059,"ORANGE","CA","92653",1.40207874699587,3363,"Laguna Hills",33.602823,-117.71295,-8,1,1.38933756663358,FALSE,0,0,1,0,4396,15,3.1,3.3,6.4,12,21,16,17,7,282,28,20,0.0009191176,0.0009276438,45,83,65.3,90,64.5,8.7,18,23,25,243,11,0,9.6,1,51,246
6059,"ORANGE","CA","92868",1.844085117017,3703,"Orange",33.787266,-117.87494,-8,1,1.94812900583282,TRUE,0,0,1,0,4396,15,3.1,3.3,6.4,12,21,16,17,7,282,28,20,0.0009191176,0.0009276438,45,83,65.3,90,64.5,8.7,18,23,25,243,11,0,9.6,1,51,246
6059,"ORANGE","CA","92805",1.34782344533482,34,"Anaheim",33.835665,-117.90807,-8,1,1.28913234722642,FALSE,0,0,1,0,4396,15,3.1,3.3,6.4,12,21,16,17,7,282,28,20,0.0009191176,0.0009276438,45,83,65.3,90,64.5,8.7,18,23,25,243,11,0,9.6,1,51,246
6059,"ORANGE","CA","92708",1.86989855988609,3838,"Fountain Valley",33.708618,-117.95629,-8,1,1.79757996611494,FALSE,0,0,1,0,4396,15,3.1,3.3,6.4,12,21,16,17,7,282,28,20,0.0009191176,0.0009276438,45,83,65.3,90,64.5,8.7,18,23,25,243,11,0,9.6,1,51,246
6059,"ORANGE","CA","92627",1.39182638600992,263,"Costa Mesa",33.647028,-117.91506,-8,1,1.24030041924025,FALSE,0,1,0,0,4396,15,3.1,3.3,6.4,12,21,16,17,7,282,28,20,0.0009191176,0.0009276438,45,83,65.3,90,64.5,8.7,18,23,25,243,11,0,9.6,1,51,246
6059,"ORANGE","CA","92843",1.4763652824733,1063,"Garden Grove",33.763033,-117.9355,-8,1,1.4954435563373,FALSE,0,0,1,0,4396,15,3.1,3.3,6.4,12,21,16,17,7,282,28,20,0.0009191176,0.0009276438,45,83,65.3,90,64.5,8.7,18,23,25,243,11,0,9.6,1,51,246
6059,"ORANGE","CA","92869",1.15037344491329,51,"Orange",33.792687,-117.79975,-8,1,1.17615998927564,FALSE,0,0,0,0,4396,15,3.1,3.3,6.4,12,21,16,17,7,282,28,20,0.0009191176,0.0009276438,45,83,65.3,90,64.5,8.7,18,23,25,243,11,0,9.6,1,51,246
6059,"ORANGE","CA","92618",1.02564633805417,989,"Irvine",33.659639,-117.73948,-8,1,1.0123841283439,FALSE,0,0,0.5,0,4396,15,3.1,3.3,6.4,12,21,16,17,7,282,28,20,0.0009191176,0.0009276438,45,83,65.3,90,64.5,8.7,18,23,25,243,11,0,9.6,1,51,246
6061,"PLACER","CA","95661",1.39508975730495,3566,"Roseville",38.731976,-121.2531,-8,1,1.3697081715255,FALSE,0,0,1,0,4802,10,3,3.1,5.7,10,20,14,17,9,174,17,12,0.0010764263,0.0009124088,35,82,72.9,91,76.4,10.8,10,14,21,230,11.4,1,14.8,2,48,47
6061,"PLACER","CA","95603",1.26307586805575,1125,"Auburn",38.909605,-121.07971,-8,1,1.23112517189409,FALSE,0,0,1,0,4802,10,3,3.1,5.7,10,20,14,17,9,174,17,12,0.0010764263,0.0009124088,35,82,72.9,91,76.4,10.8,10,14,21,230,11.4,1,14.8,2,48,47
6065,"RIVERSIDE","CA","92262",2.38862838120469,2028,"Palm Springs",33.842984,-116.54344,-8,1,2.39133376501931,FALSE,0,0,1,0,5960,19,4,4,6.5,15,28,22,17,14,171,42,23,0.0003977725,0.0004472272,55,79,61.9,82,51.3,13.6,23,24,29,341,11.9,0,6.2,6,54,253
6065,"RIVERSIDE","CA","92201",2.13911986482311,956,"Indio",33.715271,-116.235,-8,1,2.18098331932037,FALSE,0,0,1,0,5960,19,4,4,6.5,15,28,22,17,14,171,42,23,0.0003977725,0.0004472272,55,79,61.9,82,51.3,13.6,23,24,29,341,11.9,0,6.2,6,54,253
6065,"RIVERSIDE","CA","92225",1.28537332311728,134,"Blythe",33.628333,-114.61905,-8,1,1.23188972178294,FALSE,0,0,1,0,5960,19,4,4,6.5,15,28,22,17,14,171,42,23,0.0003977725,0.0004472272,55,79,61.9,82,51.3,13.6,23,24,29,341,11.9,0,6.2,6,54,253
6065,"RIVERSIDE","CA","92503",1.6548926980332,940,"Riverside",33.91355,-117.46052,-8,1,1.65823434419756,FALSE,0,0,1,0,5960,19,4,4,6.5,15,28,22,17,14,171,42,23,0.0003977725,0.0004472272,55,79,61.9,82,51.3,13.6,23,24,29,341,11.9,0,6.2,6,54,253
6065,"RIVERSIDE","CA","92585",1.06034815509472,752,"Sun City",33.742936,-117.17432,-8,1,1.03209313636117,FALSE,1,0,0,0,5960,19,4,4,6.5,15,28,22,17,14,171,42,23,0.0003977725,0.0004472272,55,79,61.9,82,51.3,13.6,23,24,29,341,11.9,0,6.2,6,54,253
6065,"RIVERSIDE","CA","92505",0.54199860942948,80,"Riverside",33.921765,-117.48812,-8,1,0.553139920226164,FALSE,1,0,0,0,5960,19,4,4,6.5,15,28,22,17,14,171,42,23,0.0003977725,0.0004472272,55,79,61.9,82,51.3,13.6,23,24,29,341,11.9,0,6.2,6,54,253
6065,"RIVERSIDE","CA","92555",1.49437048658034,1191,"Moreno Valley",33.922823,-117.16837,-8,1,1.5743177585815,FALSE,0,0,1,0,5960,19,4,4,6.5,15,28,22,17,14,171,42,23,0.0003977725,0.0004472272,55,79,61.9,82,51.3,13.6,23,24,29,341,11.9,0,6.2,6,54,253
6065,"RIVERSIDE","CA","92270",2.21926088645663,6271,"Rancho Mirage",33.762944,-116.42249,-8,1,2.22165983976045,FALSE,0,0,1,0,5960,19,4,4,6.5,15,28,22,17,14,171,42,23,0.0003977725,0.0004472272,55,79,61.9,82,51.3,13.6,23,24,29,341,11.9,0,6.2,6,54,253
6065,"RIVERSIDE","CA","92882",1.27402097160281,1286,"Corona",33.866555,-117.59167,-8,1,1.23933211537736,FALSE,0,0,1,0,5960,19,4,4,6.5,15,28,22,17,14,171,42,23,0.0003977725,0.0004472272,55,79,61.9,82,51.3,13.6,23,24,29,341,11.9,0,6.2,6,54,253
6065,"RIVERSIDE","CA","92501",2.00006424758877,3078,"Riverside",33.991181,-117.37074,-8,1,1.98983157528629,FALSE,0,0,1,0,5960,19,4,4,6.5,15,28,22,17,14,171,42,23,0.0003977725,0.0004472272,55,79,61.9,82,51.3,13.6,23,24,29,341,11.9,0,6.2,6,54,253
6065,"RIVERSIDE","CA","92220",1.04651234030551,379,"Banning",33.920803,-116.87897,-8,1,1.04849995362636,FALSE,0,0,1,0,5960,19,4,4,6.5,15,28,22,17,14,171,42,23,0.0003977725,0.0004472272,55,79,61.9,82,51.3,13.6,23,24,29,341,11.9,0,6.2,6,54,253
6065,"RIVERSIDE","CA","92563",1.11283002520747,213,"Murrieta",33.571185,-117.15362,-8,1,1.10190793256007,FALSE,0,0,1,0,5960,19,4,4,6.5,15,28,22,17,14,171,42,23,0.0003977725,0.0004472272,55,79,61.9,82,51.3,13.6,23,24,29,341,11.9,0,6.2,6,54,253
6065,"RIVERSIDE","CA","92562",0.962673569800384,2585,"Murrieta",33.568617,-117.25264,-8,1,0.971081808349822,FALSE,0,0,1,0,5960,19,4,4,6.5,15,28,22,17,14,171,42,23,0.0003977725,0.0004472272,55,79,61.9,82,51.3,13.6,23,24,29,341,11.9,0,6.2,6,54,253
6065,"RIVERSIDE","CA","92543",1.00496695210294,2344,"Hemet",33.73542,-116.97401,-8,1,1.0117418063843,FALSE,1,0,0,0,5960,19,4,4,6.5,15,28,22,17,14,171,42,23,0.0003977725,0.0004472272,55,79,61.9,82,51.3,13.6,23,24,29,341,11.9,0,6.2,6,54,253
6067,"SACRAMENTO","CA","95630",1.64997692763391,1111,"Folsom",38.672127,-121.15783,-8,1,1.65878011017636,FALSE,0,0,1,0,6447,14,3.4,3.9,6.9,15,28,19,18,10,464,38,16,0.0007535795,0.000660502,45,79,62.4,78,64.6,12.1,25,22,35,634,11.3,0,8.6,4,51,244
6067,"SACRAMENTO","CA","95608",1.69029886884977,4300,"Carmichael",38.628371,-121.32702,-8,1,1.73217207655801,FALSE,0,0,1,0,6447,14,3.4,3.9,6.9,15,28,19,18,10,464,38,16,0.0007535795,0.000660502,45,79,62.4,78,64.6,12.1,25,22,35,634,11.3,0,8.6,4,51,244
6067,"SACRAMENTO","CA","95817",2.81504613283313,3523,"Sacramento",38.551106,-121.45996,-8,1,2.88269698031329,TRUE,0,0,1,0,6447,14,3.4,3.9,6.9,15,28,19,18,10,464,38,16,0.0007535795,0.000660502,45,79,62.4,78,64.6,12.1,25,22,35,634,11.3,0,8.6,4,51,244
6067,"SACRAMENTO","CA","95823",1.55872351967141,1787,"Sacramento",38.477508,-121.44561,-8,1,1.55227953601084,FALSE,0,0,1,0,6447,14,3.4,3.9,6.9,15,28,19,18,10,464,38,16,0.0007535795,0.000660502,45,79,62.4,78,64.6,12.1,25,22,35,634,11.3,0,8.6,4,51,244
6067,"SACRAMENTO","CA","95816",1.70472533868107,4208,"Sacramento",38.571661,-121.46827,-8,1,1.63352285956327,FALSE,0,0,1,0,6447,14,3.4,3.9,6.9,15,28,19,18,10,464,38,16,0.0007535795,0.000660502,45,79,62.4,78,64.6,12.1,25,22,35,634,11.3,0,8.6,4,51,244
6067,"SACRAMENTO","CA","95825",0.944804863027712,764,"Sacramento",38.594205,-121.40726,-8,1,0.981134949450581,FALSE,0,0,1,0,6447,14,3.4,3.9,6.9,15,28,19,18,10,464,38,16,0.0007535795,0.000660502,45,79,62.4,78,64.6,12.1,25,22,35,634,11.3,0,8.6,4,51,244
6067,"SACRAMENTO","CA","95819",1.70096849656145,2971,"Sacramento",38.568855,-121.44099,-8,1,1.75529292390595,FALSE,0,0,1,0,6447,14,3.4,3.9,6.9,15,28,19,18,10,464,38,16,0.0007535795,0.000660502,45,79,62.4,78,64.6,12.1,25,22,35,634,11.3,0,8.6,4,51,244
6069,"SAN BENITO","CA","95023",1.42494713455904,411,"Hollister",36.862243,-121.38006,-8,1,1.44919343005821,FALSE,0,0,1,0,4955,21,3.3,2.9,6,7,24,16,NA,12,313,37,21,0.0003242542,0.0003763643,58,82,65.7,87,50.1,15.7,18,NA,26,427,10.9,0,9,3,50,65
6071,"SAN BERNARDINO","CA","92335",0.586989461094552,354,"Fontana",34.088911,-117.45213,-8,1,0.577391140162032,FALSE,0,1,0,0,6760,20,4.3,4.1,7.1,17,28,21,17,14,418,47,23,0.0005353319,0.0005817336,63,75,54.7,80,51.2,13.2,26,26,33,485,12.2,2,5.4,7,58,191
6071,"SAN BERNARDINO","CA","92411",1.75975358876466,649,"San Bernardino",34.12051,-117.3176,-8,1,1.76453004074149,FALSE,0,0.5,0.5,0,6760,20,4.3,4.1,7.1,17,28,21,17,14,418,47,23,0.0005353319,0.0005817336,63,75,54.7,80,51.2,13.2,26,26,33,485,12.2,2,5.4,7,58,191
6071,"SAN BERNARDINO","CA","92324",1.08271612460456,932,"Colton",34.061931,-117.31995,-8,1,1.11681650079309,FALSE,0,0,1,0,6760,20,4.3,4.1,7.1,17,28,21,17,14,418,47,23,0.0005353319,0.0005817336,63,75,54.7,80,51.2,13.2,26,26,33,485,12.2,2,5.4,7,58,191
6071,"SAN BERNARDINO","CA","92315",0.756986434821224,12,"Big Bear Lake",34.241295,-116.90328,-8,1,0.756986434821224,FALSE,0,0,1,0,6760,20,4.3,4.1,7.1,17,28,21,17,14,418,47,23,0.0005353319,0.0005817336,63,75,54.7,80,51.2,13.2,26,26,33,485,12.2,2,5.4,7,58,191
6071,"SAN BERNARDINO","CA","92307",1.43532219923224,2582,"Apple Valley",34.538622,-117.17729,-8,1,1.42288843819993,FALSE,0,1,0,0,6760,20,4.3,4.1,7.1,17,28,21,17,14,418,47,23,0.0005353319,0.0005817336,63,75,54.7,80,51.2,13.2,26,26,33,485,12.2,2,5.4,7,58,191
6071,"SAN BERNARDINO","CA","92252",1.04490797559919,455,"Joshua Tree",34.175926,-116.29137,-8,1,1.06102478448315,FALSE,0,0,1,0,6760,20,4.3,4.1,7.1,17,28,21,17,14,418,47,23,0.0005353319,0.0005817336,63,75,54.7,80,51.2,13.2,26,26,33,485,12.2,2,5.4,7,58,191
6071,"SAN BERNARDINO","CA","91763",0.861591117456391,473,"Montclair",34.07041,-117.69938,-8,1,0.868826799379788,FALSE,0,0,1,0,6760,20,4.3,4.1,7.1,17,28,21,17,14,418,47,23,0.0005353319,0.0005817336,63,75,54.7,80,51.2,13.2,26,26,33,485,12.2,2,5.4,7,58,191
6071,"SAN BERNARDINO","CA","91710",0.784918122835348,950,"Chino",34.015963,-117.68737,-8,1,0.797329918118855,FALSE,0,0,1,0,6760,20,4.3,4.1,7.1,17,28,21,17,14,418,47,23,0.0005353319,0.0005817336,63,75,54.7,80,51.2,13.2,26,26,33,485,12.2,2,5.4,7,58,191
6071,"SAN BERNARDINO","CA","92392",1.2058117652989,314,"Victorville",34.489466,-117.35321,-8,1,1.18217611953283,FALSE,0,0,1,0,6760,20,4.3,4.1,7.1,17,28,21,17,14,418,47,23,0.0005353319,0.0005817336,63,75,54.7,80,51.2,13.2,26,26,33,485,12.2,2,5.4,7,58,191
6071,"SAN BERNARDINO","CA","92311",1.97912055718526,416,"Barstow",34.894181,-117.03636,-8,1,2.02933949312435,FALSE,0,0,1,0,6760,20,4.3,4.1,7.1,17,28,21,17,14,418,47,23,0.0005353319,0.0005817336,63,75,54.7,80,51.2,13.2,26,26,33,485,12.2,2,5.4,7,58,191
6071,"SAN BERNARDINO","CA","91786",1.26512729986039,2332,"Upland",34.101659,-117.65776,-8,1,1.25533575267875,FALSE,0,0,1,0,6760,20,4.3,4.1,7.1,17,28,21,17,14,418,47,23,0.0005353319,0.0005817336,63,75,54.7,80,51.2,13.2,26,26,33,485,12.2,2,5.4,7,58,191
6071,"SAN BERNARDINO","CA","92354",1.55872884612579,3080,"Loma Linda",34.050764,-117.25327,-8,1,1.5396866081045,TRUE,0,0,1,0,6760,20,4.3,4.1,7.1,17,28,21,17,14,418,47,23,0.0005353319,0.0005817336,63,75,54.7,80,51.2,13.2,26,26,33,485,12.2,2,5.4,7,58,191
6071,"SAN BERNARDINO","CA","92404",1.50460902961865,2213,"San Bernardino",34.14856,-117.26298,-8,1,1.53419799504564,FALSE,0,0,1,0,6760,20,4.3,4.1,7.1,17,28,21,17,14,418,47,23,0.0005353319,0.0005817336,63,75,54.7,80,51.2,13.2,26,26,33,485,12.2,2,5.4,7,58,191
6071,"SAN BERNARDINO","CA","92373",1.43692158739137,975,"Redlands",34.034714,-117.17305,-8,1,1.40614036209507,FALSE,0,0,1,0,6760,20,4.3,4.1,7.1,17,28,21,17,14,418,47,23,0.0005353319,0.0005817336,63,75,54.7,80,51.2,13.2,26,26,33,485,12.2,2,5.4,7,58,191
6073,"SAN DIEGO","CA","92120",1.16703447666713,2770,"San Diego",32.794449,-117.07221,-8,1,1.13559580362747,TRUE,0,0,1,0,5143,16,3.5,3.6,6.6,13,23,17,17,10,496,35,19,0.0007524454,0.0007163324,44,82,59.2,84,67.4,10,19,23,29,410,11.7,0,10.2,3,50,435
6073,"SAN DIEGO","CA","91942",1.53425274786021,5273,"La Mesa",32.785,-117.0186,-8,1,1.53643077825098,FALSE,0,0,1,0,5143,16,3.5,3.6,6.6,13,23,17,17,10,496,35,19,0.0007524454,0.0007163324,44,82,59.2,84,67.4,10,19,23,29,410,11.7,0,10.2,3,50,435
6073,"SAN DIEGO","CA","92024",1.43280696082004,1618,"Encinitas",33.053092,-117.26855,-8,1,1.46232589457754,FALSE,0,0,1,0,5143,16,3.5,3.6,6.6,13,23,17,17,10,496,35,19,0.0007524454,0.0007163324,44,82,59.2,84,67.4,10,19,23,29,410,11.7,0,10.2,3,50,435
6073,"SAN DIEGO","CA","92064",1.25943323989604,1408,"Poway",32.973645,-117.03701,-8,1,1.3032214181361,FALSE,0,0,1,0,5143,16,3.5,3.6,6.6,13,23,17,17,10,496,35,19,0.0007524454,0.0007163324,44,82,59.2,84,67.4,10,19,23,29,410,11.7,0,10.2,3,50,435
6073,"SAN DIEGO","CA","92123",1.77372903396666,3216,"San Diego",32.803799,-117.13595,-8,1,1.81132140318405,FALSE,0,0,1,0,5143,16,3.5,3.6,6.6,13,23,17,17,10,496,35,19,0.0007524454,0.0007163324,44,82,59.2,84,67.4,10,19,23,29,410,11.7,0,10.2,3,50,435
6073,"SAN DIEGO","CA","92037",1.62867768190065,4623,"La Jolla",32.838761,-117.26159,-8,1,1.6060779065401,TRUE,0,0,1,0,5143,16,3.5,3.6,6.6,13,23,17,17,10,496,35,19,0.0007524454,0.0007163324,44,82,59.2,84,67.4,10,19,23,29,410,11.7,0,10.2,3,50,435
6073,"SAN DIEGO","CA","92025",1.31415157516433,2707,"Escondido",33.106862,-117.07077,-8,1,1.36666829745547,FALSE,0,0,1,0,5143,16,3.5,3.6,6.6,13,23,17,17,10,496,35,19,0.0007524454,0.0007163324,44,82,59.2,84,67.4,10,19,23,29,410,11.7,0,10.2,3,50,435
6073,"SAN DIEGO","CA","92028",1.55809726104895,375,"Fallbrook",33.380359,-117.20605,-8,1,1.46976003085591,FALSE,0,0,1,0,5143,16,3.5,3.6,6.6,13,23,17,17,10,496,35,19,0.0007524454,0.0007163324,44,82,59.2,84,67.4,10,19,23,29,410,11.7,0,10.2,3,50,435
6073,"SAN DIEGO","CA","91950",1.46178425190271,3150,"National City",32.670903,-117.09272,-8,1,1.10651829217862,FALSE,0,0,1,0,5143,16,3.5,3.6,6.6,13,23,17,17,10,496,35,19,0.0007524454,0.0007163324,44,82,59.2,84,67.4,10,19,23,29,410,11.7,0,10.2,3,50,435
6073,"SAN DIEGO","CA","92118",1.31091186357426,304,"Coronado",32.682727,-117.17441,-8,1,1.46687732128999,FALSE,0,0,1,0,5143,16,3.5,3.6,6.6,13,23,17,17,10,496,35,19,0.0007524454,0.0007163324,44,82,59.2,84,67.4,10,19,23,29,410,11.7,0,10.2,3,50,435
6073,"SAN DIEGO","CA","91911",2.06091069615421,2832,"Chula Vista",32.608799,-117.0607,-8,1,2.04106973373392,FALSE,0,0,1,0,5143,16,3.5,3.6,6.6,13,23,17,17,10,496,35,19,0.0007524454,0.0007163324,44,82,59.2,84,67.4,10,19,23,29,410,11.7,0,10.2,3,50,435
6073,"SAN DIEGO","CA","92056",1.20948548550236,2633,"Oceanside",33.195354,-117.28232,-8,1,1.22356071949877,FALSE,0,0,1,0,5143,16,3.5,3.6,6.6,13,23,17,17,10,496,35,19,0.0007524454,0.0007163324,44,82,59.2,84,67.4,10,19,23,29,410,11.7,0,10.2,3,50,435
6073,"SAN DIEGO","CA","92103",1.41520539680337,8346,"San Diego",32.746018,-117.16715,-8,1,1.38273514116107,TRUE,0,0,1,0,5143,16,3.5,3.6,6.6,13,23,17,17,10,496,35,19,0.0007524454,0.0007163324,44,82,59.2,84,67.4,10,19,23,29,410,11.7,0,10.2,3,50,435
6075,"SAN FRANCISCO","CA","94115",1.95298433677975,2944,"San Francisco",37.786129,-122.43736,-8,1,1.98443044285156,FALSE,0,0,1,0,5244,17,3.3,3.4,7,11,17,17,21,5,571,17,15,0.0014534884,0.001242236,48,81,61.9,82,82.3,8.6,16,26,30,773,10.1,0,13.3,1,30,2011
6075,"SAN FRANCISCO","CA","94110",2.21119301199531,1532,"San Francisco",37.74873,-122.41545,-8,1,2.22917766771949,TRUE,0,0,1,0,5244,17,3.3,3.4,7,11,17,17,21,5,571,17,15,0.0014534884,0.001242236,48,81,61.9,82,82.3,8.6,16,26,30,773,10.1,0,13.3,1,30,2011
6075,"SAN FRANCISCO","CA","94116",1.10442502444379,38,"San Francisco",37.743381,-122.48578,-8,1,1.10442502444379,FALSE,0,0,1,0,5244,17,3.3,3.4,7,11,17,17,21,5,571,17,15,0.0014534884,0.001242236,48,81,61.9,82,82.3,8.6,16,26,30,773,10.1,0,13.3,1,30,2011
6075,"SAN FRANCISCO","CA","94109",2.51905269899224,1025,"San Francisco",37.792778,-122.42188,-8,1,2.57531069570312,FALSE,0,0,1,0,5244,17,3.3,3.4,7,11,17,17,21,5,571,17,15,0.0014534884,0.001242236,48,81,61.9,82,82.3,8.6,16,26,30,773,10.1,0,13.3,1,30,2011
6075,"SAN FRANCISCO","CA","94114",1.77858332895793,300,"San Francisco",37.758434,-122.43512,-8,1,1.77840983566917,FALSE,0,0,1,0,5244,17,3.3,3.4,7,11,17,17,21,5,571,17,15,0.0014534884,0.001242236,48,81,61.9,82,82.3,8.6,16,26,30,773,10.1,0,13.3,1,30,2011
6075,"SAN FRANCISCO","CA","94117",2.2149689163922,1248,"San Francisco",37.770937,-122.44276,-8,1,2.24413074388813,FALSE,0,0,1,0,5244,17,3.3,3.4,7,11,17,17,21,5,571,17,15,0.0014534884,0.001242236,48,81,61.9,82,82.3,8.6,16,26,30,773,10.1,0,13.3,1,30,2011
6075,"SAN FRANCISCO","CA","94143",2.30630572447486,3124,"San Francisco",37.76313,-122.458582,-8,1,2.37804969517047,TRUE,0,0,0,0,5244,17,3.3,3.4,7,11,17,17,21,5,571,17,15,0.0014534884,0.001242236,48,81,61.9,82,82.3,8.6,16,26,30,773,10.1,0,13.3,1,30,2011
6075,"SAN FRANCISCO","CA","94133",1.12775785090788,385,"San Francisco",37.801878,-122.41018,-8,1,1.13828450540562,FALSE,0,0.5,0.5,0,5244,17,3.3,3.4,7,11,17,17,21,5,571,17,15,0.0014534884,0.001242236,48,81,61.9,82,82.3,8.6,16,26,30,773,10.1,0,13.3,1,30,2011
6077,"SAN JOAQUIN","CA","95204",2.00544268024763,3958,"Stockton",37.974273,-121.3147,-8,1,2.01043444438823,FALSE,0,0,1,0,7088,21,3.8,3.9,6.9,18,30,21,18,14,542,47,19,0.0005920663,0.0005144033,63,82,62.6,79,49.5,16.8,25,28,33,840,11.6,1,4.8,4,54,196
6077,"SAN JOAQUIN","CA","95376",1.57837168811784,751,"Tracy",37.728417,-121.42399,-8,1,1.58822917193775,FALSE,0,0,1,0,7088,21,3.8,3.9,6.9,18,30,21,18,14,542,47,19,0.0005920663,0.0005144033,63,82,62.6,79,49.5,16.8,25,28,33,840,11.6,1,4.8,4,54,196
6077,"SAN JOAQUIN","CA","95203",2.55004388932622,995,"Stockton",37.954823,-121.30735,-8,1,2.60986110730345,FALSE,0,0,1,0,7088,21,3.8,3.9,6.9,18,30,21,18,14,542,47,19,0.0005920663,0.0005144033,63,82,62.6,79,49.5,16.8,25,28,33,840,11.6,1,4.8,4,54,196
6077,"SAN JOAQUIN","CA","95337",1.20371213076286,24,"Manteca",37.782332,-121.23578,-8,1,1.23164887734526,FALSE,0,0,1,0,7088,21,3.8,3.9,6.9,18,30,21,18,14,542,47,19,0.0005920663,0.0005144033,63,82,62.6,79,49.5,16.8,25,28,33,840,11.6,1,4.8,4,54,196
6077,"SAN JOAQUIN","CA","95240",3.19673500140731,2286,"Lodi",38.12463,-121.25039,-8,1,3.15399833553023,FALSE,0,0,1,0,7088,21,3.8,3.9,6.9,18,30,21,18,14,542,47,19,0.0005920663,0.0005144033,63,82,62.6,79,49.5,16.8,25,28,33,840,11.6,1,4.8,4,54,196
6077,"SAN JOAQUIN","CA","95336",3.3623748705689,939,"Manteca",37.812815,-121.21416,-8,1,3.24130419347837,FALSE,1,0,0,0,7088,21,3.8,3.9,6.9,18,30,21,18,14,542,47,19,0.0005920663,0.0005144033,63,82,62.6,79,49.5,16.8,25,28,33,840,11.6,1,4.8,4,54,196
6077,"SAN JOAQUIN","CA","95231",1.53723964516332,245,"French Camp",37.882742,-121.27978,-8,1,1.54134916065323,FALSE,1,0,0,0,7088,21,3.8,3.9,6.9,18,30,21,18,14,542,47,19,0.0005920663,0.0005144033,63,82,62.6,79,49.5,16.8,25,28,33,840,11.6,1,4.8,4,54,196
6079,"SAN LUIS OBISPO","CA","93405",2.3642429518319,800,"San Luis Obispo",35.277189,-120.70305,-8,1,2.45645280597258,FALSE,0,0,1,0,5229,12,3.2,3.8,6,10,22,15,20,14,257,19,18,0.00078125,0.0006830601,37,86,70.8,92,64,9.3,18,21,26,274,10,1,14.8,4,42,182
6079,"SAN LUIS OBISPO","CA","93420",1.41560673455588,786,"Arroyo Grande",35.119678,-120.55116,-8,1,1.37894226701436,FALSE,0,0,1,0,5229,12,3.2,3.8,6,10,22,15,20,14,257,19,18,0.00078125,0.0006830601,37,86,70.8,92,64,9.3,18,21,26,274,10,1,14.8,4,42,182
6079,"SAN LUIS OBISPO","CA","93465",2.63133894282683,1737,"Templeton",35.54464,-120.72428,-8,1,2.69756444168302,FALSE,0,0,1,0,5229,12,3.2,3.8,6,10,22,15,20,14,257,19,18,0.00078125,0.0006830601,37,86,70.8,92,64,9.3,18,21,26,274,10,1,14.8,4,42,182
6079,"SAN LUIS OBISPO","CA","93401",1.72691020387349,1242,"San Luis Obispo",35.262548,-120.65196,-8,1,1.79718548066486,FALSE,0.5,0,0.5,0,5229,12,3.2,3.8,6,10,22,15,20,14,257,19,18,0.00078125,0.0006830601,37,86,70.8,92,64,9.3,18,21,26,274,10,1,14.8,4,42,182
